~Version ---------------------------------------------------
VERS.   2.0 : CWLS log ASCII Standard -VERSION 2.0
WRAP.    NO : One line per depth step
DLM . SPACE : Column Data Section Delimiter
~Well ------------------------------------------------------
STRT.0.1 in          67920.00000 : START DEPTH
STOP.0.1 in        1476300.00000 : STOP DEPTH
STEP.0.1 in             60.00000 : STEP
NULL.                    -999.25 : NULL VALUE
COMP.               STATOILHYDRO : COMPANY
WELL.                  15/9-F-14 : WELL
FLD .                      VOLVE : FIELD
LOC .                            : LOCATION
PROV.                            : PROVINCE
CNTY.                            : COUNTY
STAT.                            : STATE
CTRY.                            : COUNTRY
SRVC.    CROCKER DATA PROCESSING : SERVICE COMPANY
DATE. 2009-02-18 14:31:44.282000 : DATE
UWI .                            : UNIQUE WELL ID
API .                            : API NUMBER
~Curve Information -----------------------------------------
DEPTH.0.1 in       : Measured Depth
DRHO .g/cm3        : DRHO:UNKNOWN:rC:NONE:v1
DT   .us/ft        : DT:UNKNOWN:rC:NONE:v2
DTS  .us/ft        : DTS:UNKNOWN:rC:NONE:v1
GR   .API          : GR:UNKNOWN:rC:NONE:v1
NPHI .v/v_decimal  : NPHI:UNKNOWN:rC:NONE:v1
PEF  .b/elec       : PEF:UNKNOWN:rC:NONE:v1
RD   .UNKNOWN      : RD:UNKNOWN:rC:NONE:v1
RHOB .g/cm3        : RHOB:UNKNOWN:rC:NONE:v1
RS   .UNKNOWN      : RS:UNKNOWN:rC:NONE:v1
RT   .ohm.m        : RT:UNKNOWN:rC:NONE:v1
~Params ----------------------------------------------------
PROD   .                        PETROLOG : 
PROG   .            ['PETROLOG-TO-DLIS'] : 
RUN    .                              [] : 
DESCENT.                              [] : 
VERSION.                           10.00 : 
LINEAGE.      Python-converted from DLIS : 
ORFILE . WLC_PETRO_COMPUTED_INPUT_1.DLIS : 
~Other -----------------------------------------------------
~ASCII -----------------------------------------------------
# ...
 1392180.00000    0.02720   88.70670  151.18300   38.84730    0.19330    2.49770   17.52920    2.24590   18.63880   18.07720
 1392240.00000    0.03100   87.93070  149.57030   38.89170    0.19310    2.61360   17.44270    2.23900   18.50440   18.09470
 1392300.00000    0.03330   87.26590  147.97569   37.51820    0.18330    2.64250   17.46190    2.23800   18.29570   18.27190
 1392360.00000    0.03780   86.87750  146.87981   35.30340    0.18250    2.70550   17.58200    2.24060   17.76740   18.14470
 1392420.00000    0.03310   85.69710  145.91319   33.93100    0.18940    2.74950   17.19420    2.23500   17.70050   17.83320
 1392480.00000    0.03070   85.81340  145.16940   32.48320    0.17000    2.74430   17.44540    2.23320   17.21070   17.75520
 1392540.00000    0.02280   87.28020  145.20610   31.65100    0.16870    2.60810   17.57590    2.22930   17.09410   17.46290
 1392600.00000    0.02150   87.63140  144.56610   32.27760    0.18010    2.46390   17.59250    2.23380   16.73750   17.38010
 1392660.00000    0.01980   86.89450  144.54089   33.17460    0.17590    2.41200   17.42280    2.23660   16.38670   17.30680
 1392720.00000    0.01830   87.35290  144.47639   34.58350    0.17120    2.35830   17.38610    2.24030   16.32100   17.22620
 1392780.00000    0.01840   87.17380  144.36440   33.04750    0.17660    2.31340   17.59280    2.24040   15.91950   16.99650
 1392840.00000    0.01570   88.58550  144.14760   32.77280    0.17810    2.27110   17.40850    2.23440   15.84890   16.98200
 1392900.00000    0.01470   88.93450  144.01450   32.50270    0.17890    2.30000   17.30700    2.23350   15.17450   16.60650
 1392960.00000    0.01630   86.82120  143.71370   33.56070    0.18210    2.33690   17.46150    2.23850   15.01900   16.49350
 1393020.00000    0.02130   87.82880  143.00681   32.69360    0.17130    2.42950   17.46520    2.24450   14.67820   16.30490
 1393080.00000    0.02750   87.56720  143.11520   32.63740    0.17610    2.57370   17.12620    2.24720   14.56370   15.93830
 1393140.00000    0.02760   88.80760  144.13580   32.61080    0.17090    2.64840   17.43950    2.25290   14.16040   15.81540
 1393200.00000    0.02780   90.01830  145.59399   32.69080    0.17470    2.68550   17.24200    2.26080   14.06600   15.72520
 1393260.00000    0.02540   88.55230  145.78740   32.98700    0.16630    2.65940   17.11320    2.26190   13.94180   15.55570
 1393320.00000    0.02370   89.48660  145.90440   33.41280    0.16860    2.69380   16.92180    2.25250   13.90980   15.51240
 1393380.00000    0.02830   88.91120  145.76270   33.57630    0.17410    2.67940   16.99040    2.25580   13.67480   15.45720
 1393440.00000    0.02800   87.73080  145.34039   33.39410    0.17130    2.70270   16.99280    2.25320   13.71160   15.37840
 1393500.00000    0.02910   87.75550  144.52000   32.40280    0.16860    2.64170   17.12410    2.25890   13.77760   15.41890
 1393560.00000    0.02390   87.74700  144.42450   32.89860    0.16910    2.67310   16.89870    2.25120   13.72820   15.42430
 1393620.00000    0.02240   86.78520  146.26750   33.55610    0.16630    2.66960   17.25110    2.25110   13.93430   15.47770
 1393680.00000    0.02250   85.54210  147.09750   34.94600    0.17480    2.71650   17.03760    2.25000   13.96150   15.63140
 1393740.00000    0.01950   87.61590  147.11411   33.90790    0.18750    2.68560   17.07510    2.24250   13.94870   15.59010
 1393800.00000    0.02400   87.59970  146.17349   32.22740    0.18030    2.63790   17.25420    2.24150   13.99970   15.78050
 1393860.00000    0.02360   87.73080  145.69980   30.23730    0.17280    2.57130   17.11770    2.23830   14.22680   15.99010
 1393920.00000    0.02680   87.28660  146.01559   32.27300    0.17060    2.51130   17.40090    2.24480   14.09050   15.98830
 1393980.00000    0.02170   85.95810  145.36430   33.22250    0.17340    2.42480   17.21840    2.24440   14.48490   16.13470
 1394040.00000    0.02040   85.73740  144.48640   33.57720    0.17550    2.39210   17.20920    2.24100   14.42640   16.14490
 1394100.00000    0.01760   86.02370  144.97900   32.22150    0.16190    2.36300   17.25590    2.23500   14.39670   16.23260
 1394160.00000    0.02350   85.63870  145.19730   32.90320    0.16310    2.45690   16.95360    2.23780   14.55930   16.31360
 1394220.00000    0.02920   86.15620  143.99310   33.29990    0.17320    2.53250   16.97180    2.24210   14.69760   16.72680
 1394280.00000    0.03540   86.83600  143.32600   33.25200    0.18590    2.64150   16.92930    2.25450   14.90700   16.96190
 1394340.00000    0.03410   86.47570  143.73920   31.46280    0.17120    2.61090   17.04660    2.27200   14.73700   16.63980
 1394400.00000    0.02680   86.46650  144.11700   32.53290    0.16650    2.55390   17.12730    2.27520   14.81360   16.78860
 1394460.00000    0.02100   85.74510  144.26660   34.50040    0.16290    2.49250   17.03430    2.26910   15.16380   16.61740
 1394520.00000    0.01810   86.31280  145.58800   35.46770    0.16590    2.45210   17.02930    2.25260   15.45420   17.24830
 1394580.00000    0.01810   87.84580  148.64470   35.04590    0.18000    2.43990   16.87670    2.23940   15.44170   17.21020
 1394640.00000    0.01730   87.86200  149.03160   33.40580    0.17280    2.42830   16.76400    2.23020   15.93240   17.65310
 1394700.00000    0.01740   87.63210  149.57700   34.75140    0.17820    2.43550   16.79480    2.22280   16.45570   17.84780
 1394760.00000    0.02240   87.46850  150.38541   36.38050    0.17520    2.44800   16.83740    2.22290   17.03910   18.19060
 1394820.00000    0.02230   87.63210  150.13760   37.05300    0.18470    2.40590   16.58510    2.21560   17.20920   18.56650
 1394880.00000    0.02290   87.44380  148.60010   37.29930    0.18160    2.38280   16.72390    2.21160   17.45620   18.53140
 1394940.00000    0.01660   87.64060  148.14310   37.01550    0.18800    2.42440   16.71250    2.20420   17.36790   19.07850
 1395000.00000    0.02260   88.38100  148.33800   36.16230    0.18110    2.51050   16.66060    2.21230   17.86670   19.13530
 1395060.00000    0.02380   89.80540  149.99940   36.08340    0.18920    2.61080   16.65250    2.20800   18.25750   19.10950
 1395120.00000    0.03500   89.05370  151.15910   35.77590    0.19010    2.74470   16.57840    2.22130   18.29420   19.26810
 1395180.00000    0.03290   91.18600  151.57230   37.94790    0.19570    2.85370   16.70780    2.21260   18.55690   19.31460
 1395240.00000    0.03380   91.94830  151.81790   38.20840    0.19800    2.91890   16.61010    2.21160   19.01320   19.67690
 1395300.00000    0.03400   91.56190  151.21950   38.76440    0.19470    2.87110   16.69730    2.20760   19.55210   19.87640
 1395360.00000    0.03510   90.33910  150.11189   39.28520    0.19290    2.79630   16.59020    2.21550   19.77680   20.07660
 1395420.00000    0.03190   88.68910  148.84300   40.33610    0.18040    2.67660   16.55900    2.22470   19.70140   19.84960
 1395480.00000    0.02730   87.14060  148.35400   38.72480    0.17540    2.64830   16.67730    2.22840   19.67940   19.92020
 1395540.00000    0.02670   87.90360  151.42349   38.96300    0.17560    2.67410   16.34410    2.22720   19.33190   19.72780
 1395600.00000    0.02970   88.75750  152.35429   37.79540    0.17380    2.73980   16.50340    2.22290   19.11850   19.39850
 1395660.00000    0.02770   90.07820  151.89650   40.38780    0.19150    2.75440   16.49490    2.21380   19.37880   19.18020
 1395720.00000    0.02750   90.62680  151.05330   40.16110    0.18510    2.75930   16.03820    2.21320   19.48440   19.48350
 1395780.00000    0.03040   90.11840  150.34770   39.21930    0.18830    2.80000   16.22420    2.21960   19.24760   19.41370
 1395840.00000    0.03470   89.27160  148.31860   38.24090    0.18320    2.87410   15.95860    2.22370   19.22250   19.24060
 1395900.00000    0.03520   87.46850  147.93970   37.17780    0.17770    2.92490   16.02670    2.22470   19.33720   19.21520
 1395960.00000    0.02610   87.78020  148.02240   37.38020    0.18060    2.82970   16.04840    2.21180   19.06390   19.12670
