~Version ---------------------------------------------------
VERS.   2.0 : CWLS log ASCII Standard -VERSION 2.0
WRAP.    NO : One line per depth step
DLM . SPACE : Column Data Section Delimiter
~Well ------------------------------------------------------
STRT.0.1 in          67920.00000 : START DEPTH
STOP.0.1 in        1476300.00000 : STOP DEPTH
STEP.0.1 in             60.00000 : STEP
NULL.                    -999.25 : NULL VALUE
COMP.               STATOILHYDRO : COMPANY
WELL.                  15/9-F-14 : WELL
FLD .                      VOLVE : FIELD
LOC .                            : LOCATION
PROV.                            : PROVINCE
CNTY.                            : COUNTY
STAT.                            : STATE
CTRY.                            : COUNTRY
SRVC.    CROCKER DATA PROCESSING : SERVICE COMPANY
DATE. 2009-02-18 14:31:44.282000 : DATE
UWI .                            : UNIQUE WELL ID
API .                            : API NUMBER
~Curve Information -----------------------------------------
DEPTH.0.1 in       : Measured Depth
DRHO .g/cm3        : DRHO:UNKNOWN:rC:NONE:v1
DT   .us/ft        : DT:UNKNOWN:rC:NONE:v2
DTS  .us/ft        : DTS:UNKNOWN:rC:NONE:v1
GR   .API          : GR:UNKNOWN:rC:NONE:v1
NPHI .v/v_decimal  : NPHI:UNKNOWN:rC:NONE:v1
PEF  .b/elec       : PEF:UNKNOWN:rC:NONE:v1
RD   .UNKNOWN      : RD:UNKNOWN:rC:NONE:v1
RHOB .g/cm3        : RHOB:UNKNOWN:rC:NONE:v1
RS   .UNKNOWN      : RS:UNKNOWN:rC:NONE:v1
RT   .ohm.m        : RT:UNKNOWN:rC:NONE:v1
~Params ----------------------------------------------------
PROD   .                        PETROLOG : 
PROG   .            ['PETROLOG-TO-DLIS'] : 
RUN    .                              [] : 
DESCENT.                              [] : 
VERSION.                           10.00 : 
LINEAGE.      Python-converted from DLIS : 
ORFILE . WLC_PETRO_COMPUTED_INPUT_1.DLIS : 
~Other -----------------------------------------------------
~ASCII -----------------------------------------------------
# ...
 1219380.00000    0.02260   84.21080  146.64790   43.50110    0.16960    3.39000  151.04280    2.27250   49.36530  102.04110
 1219440.00000    0.01760   84.30950  145.73450   43.94350    0.18580    3.36950  163.60060    2.27440   55.53250  133.21210
 1219500.00000    0.01350   84.96670  145.91960   44.00960    0.18230    3.39310  137.60130    2.28240   64.57040  196.54111
 1219560.00000    0.01160   86.16400  146.91389   42.55690    0.18070    3.50520  136.97079    2.28360   73.51750  243.79939
 1219620.00000    0.02500   86.60680  147.74640   40.50530    0.17750    3.85620  103.25440    2.27840   91.35690  165.82890
 1219680.00000    0.03650   86.63930  145.93550   37.87700    0.17670    4.09910  123.28520    2.25600  148.95531  304.65231
 1219740.00000    0.04450   86.32760  144.19479   34.81420    0.17270    4.12170  136.43130    2.23220  184.04950  658.14838
 1219800.00000    0.04000   86.41860  142.93010   32.11880    0.17860    3.94820   98.47370    2.21290  242.54919  967.52301
 1219860.00000    0.03880   87.65040  143.93491   29.62370    0.18070    3.81000  114.40720    2.20470  263.69519  823.14832
 1219920.00000    0.03890   89.42950  146.34039   28.16880    0.17600    3.69160   90.30590    2.19510  331.01001 1180.53796
 1219980.00000    0.04170   89.13270  145.63780   27.85080    0.17090    3.50310   96.94170    2.19510  385.44540 5000.00000
 1220040.00000    0.03920   87.82110  145.84940   27.18580    0.15760    3.29680   87.28010    2.18970  230.08791 2218.11011
 1220100.00000    0.03320   88.09260  145.35370   26.36790    0.16870    3.00540   92.71360    2.18620  242.16360 5000.00000
 1220160.00000    0.02590   88.41900  141.77640   24.07790    0.17130    2.73630   87.84110    2.18110  229.52699 1269.85596
 1220220.00000    0.02110   87.49320  139.81810   23.52200    0.18000    2.51180   93.57740    2.17840  216.23270 1449.60901
 1220280.00000    0.01550   87.69770  140.66360   24.30280    0.17150    2.47810   99.85490    2.16810  250.50011 1048.76196
 1220340.00000    0.01150   87.64130  143.32820   27.26750    0.17810    2.51650  131.59509    2.15820  342.04440 5000.00000
 1220400.00000    0.00650   88.36260  146.69479   29.38710    0.17250    2.61840  200.00000    2.16450  507.47299 5000.00000
 1220460.00000    0.00490   88.36260  148.62660   33.38750    0.18290    2.82170  200.00000    2.18840  330.19269 5000.00000
 1220520.00000    0.00360   88.41200  148.66290   35.91260    0.17850    3.01770  200.00000    2.22200  170.72639 5000.00000
 1220580.00000    0.01390   88.91340  150.03490   37.87260    0.19630    3.08760  200.00000    2.24510  139.80280 5000.00000
 1220640.00000    0.02640   89.87230  151.75740   39.72620    0.19330    3.17600  200.00000    2.25160  103.20460 5000.00000
 1220700.00000    0.03480   89.95480  152.33611   42.61390    0.18170    3.13180  200.00000    2.25130  178.42261 5000.00000
 1220760.00000    0.02000   90.07680  150.44360   43.25790    0.17800    3.12560  200.00000    2.22940  310.52310 5000.00000
 1220820.00000    0.01080   89.10870  146.32990   39.63880    0.18810    2.86700  200.00000    2.22050 1553.65906 5000.00000
 1220880.00000    0.00740   88.57630  143.74750   34.53640    0.18900    2.74980  200.00000    2.19610  265.71701 5000.00000
 1220940.00000    0.02020   88.87950  144.03889   30.25870    0.16180    2.66510  200.00000    2.19330  178.75630 5000.00000
 1221000.00000    0.02140   88.49310  145.34869   27.74000    0.17230    2.64990  200.00000    2.18320  237.93500 5000.00000
 1221060.00000    0.01770   87.56650  145.94180   24.66810    0.17990    2.58420  200.00000    2.17380  351.25690 5000.00000
 1221120.00000    0.00980   87.09830  146.11890   21.56640    0.17080    2.49760  137.96310    2.15640  483.24219 5000.00000
 1221180.00000    0.01370   86.50040  145.46820   18.54840    0.17240    2.43690  118.37880    2.15290  280.09259 5000.00000
 1221240.00000    0.01450   87.09970  145.10040   16.99350    0.17220    2.46070  106.25110    2.15090  238.11240 2104.85303
 1221300.00000    0.02050   88.14190  143.78909   17.49760    0.16630    2.43970  100.70500    2.16360  233.07860 1600.84204
 1221360.00000    0.01720   88.55020  143.25980   17.42230    0.17380    2.42500  106.08130    2.16150  241.26711 1056.48901
 1221420.00000    0.01930   87.74000  143.38950   16.88630    0.17080    2.37600  110.41480    2.16730  245.61650  810.37762
 1221480.00000    0.01690   88.99510  144.53340   15.75430    0.17380    2.40220  118.70750    2.16010  261.91840  796.15411
 1221540.00000    0.01530   89.66710  145.07401   16.53500    0.17700    2.46350  119.87140    2.15200  310.97461  721.08978
 1221600.00000    0.01400   89.43730  145.26320   17.32410    0.16450    2.43520  108.10340    2.14920  290.68811  569.31818
 1221660.00000    0.01500   89.32300  145.46930   18.46420    0.17910    2.44870  119.26260    2.15370  312.30600  454.94910
 1221720.00000    0.01760   89.88930  145.81490   18.55550    0.17940    2.40030  116.19860    2.16220  334.74249  449.07220
 1221780.00000    0.01800   90.47170  146.41330   18.83220    0.17500    2.53270  120.33650    2.15590  311.06650  470.21289
 1221840.00000    0.02100   90.99700  147.52200   17.87940    0.17610    2.53980  118.97430    2.15220  327.38699  440.63641
 1221900.00000    0.02120   91.42290  149.20680   18.21040    0.17640    2.52280  110.36620    2.15290  381.45239  440.91901
 1221960.00000    0.01900   90.88910  148.79359   17.70420    0.17140    2.46750  121.48430    2.15910  439.30270  430.25510
 1222020.00000    0.01810   90.14310  148.10870   18.77730    0.17540    2.44180  130.64281    2.16200  395.99689  424.27621
 1222080.00000    0.01770   90.29970  147.16949   17.58970    0.17740    2.48800  126.37280    2.15980  438.89999  416.78201
 1222140.00000    0.01800   90.88980  147.31979   16.37330    0.17650    2.45710  125.51180    2.15370  424.23859  385.28448
 1222200.00000    0.01910   91.01330  148.14560   15.27260    0.18540    2.55040  133.98550    2.14900  419.04071  373.30029
 1222260.00000    0.01800   91.34110  148.23320   16.37880    0.17680    2.53350  131.92180    2.14850  450.03741  386.52719
 1222320.00000    0.01830   91.16840  148.03979   18.52930    0.18290    2.58400  134.53310    2.15020  441.73721  358.21420
 1222380.00000    0.01120   90.83270  148.60310   19.08040    0.19790    2.49560  128.73630    2.14370  432.44739  347.36670
 1222440.00000    0.01540   91.16060  150.28790   17.79640    0.17530    2.58710  126.90420    2.14540  501.29791  372.40201
 1222500.00000    0.01860   91.06190  149.95480   17.08850    0.17480    2.68180  141.86929    2.14940  465.41721  411.55731
 1222560.00000    0.03150   90.84900  150.45570   17.49090    0.18620    2.82310  139.20740    2.17050  579.98578  461.08511
 1222620.00000    0.03100   91.35030  150.95731   18.88100    0.18590    3.19600  144.64560    2.16950  568.62323  556.37433
 1222680.00000    0.03800   92.77820  152.12691   19.27990    0.19210    3.69120  130.78470    2.16670  818.30487  539.69757
 1222740.00000    0.03030   94.32880  153.81540   21.59350    0.21130    4.38930  149.78120    2.14330  873.52789  613.69427
 1222800.00000    0.02940   95.46060  156.13640   23.22140    0.20290    4.32530  179.85609    2.12640  542.40271  462.37451
 1222860.00000    0.02830   96.37230  157.71690   24.95410    0.19600    3.96270   99.26690    2.11990  214.11600  203.67940
 1222920.00000    0.02920   97.99630  157.91180   23.92170    0.21480    3.45470  124.11090    2.10890  222.76669  270.35321
 1222980.00000    0.03920   98.60270  159.86400   23.08070    0.21030    3.35940  100.66510    2.12010  178.85181  216.24130
 1223040.00000    0.03790   98.05200  161.45290   21.57700    0.18120    3.31020  106.31970    2.12540  164.99719  251.58130
 1223100.00000    0.04150   96.32020  160.06900   19.94120    0.18710    3.29470  133.32660    2.14260  686.94781  693.46307
 1223160.00000    0.03640   94.08840  157.27370   18.31610    0.18190    3.25420  141.22760    2.14570  731.90698  496.01160
