~Version ---------------------------------------------------
VERS.   2.0 : CWLS log ASCII Standard -VERSION 2.0
WRAP.    NO : One line per depth step
DLM . SPACE : Column Data Section Delimiter
~Well ------------------------------------------------------
STRT.0.1 in          67920.00000 : START DEPTH
STOP.0.1 in        1476300.00000 : STOP DEPTH
STEP.0.1 in             60.00000 : STEP
NULL.                    -999.25 : NULL VALUE
COMP.               STATOILHYDRO : COMPANY
WELL.                  15/9-F-14 : WELL
FLD .                      VOLVE : FIELD
LOC .                            : LOCATION
PROV.                            : PROVINCE
CNTY.                            : COUNTY
STAT.                            : STATE
CTRY.                            : COUNTRY
SRVC.    CROCKER DATA PROCESSING : SERVICE COMPANY
DATE. 2009-02-18 14:31:44.282000 : DATE
UWI .                            : UNIQUE WELL ID
API .                            : API NUMBER
~Curve Information -----------------------------------------
DEPTH.0.1 in       : Measured Depth
DRHO .g/cm3        : DRHO:UNKNOWN:rC:NONE:v1
DT   .us/ft        : DT:UNKNOWN:rC:NONE:v2
DTS  .us/ft        : DTS:UNKNOWN:rC:NONE:v1
GR   .API          : GR:UNKNOWN:rC:NONE:v1
NPHI .v/v_decimal  : NPHI:UNKNOWN:rC:NONE:v1
PEF  .b/elec       : PEF:UNKNOWN:rC:NONE:v1
RD   .UNKNOWN      : RD:UNKNOWN:rC:NONE:v1
RHOB .g/cm3        : RHOB:UNKNOWN:rC:NONE:v1
RS   .UNKNOWN      : RS:UNKNOWN:rC:NONE:v1
RT   .ohm.m        : RT:UNKNOWN:rC:NONE:v1
~Params ----------------------------------------------------
PROD   .                        PETROLOG : 
PROG   .            ['PETROLOG-TO-DLIS'] : 
RUN    .                              [] : 
DESCENT.                              [] : 
VERSION.                           10.00 : 
LINEAGE.      Python-converted from DLIS : 
ORFILE . WLC_PETRO_COMPUTED_INPUT_1.DLIS : 
~Other -----------------------------------------------------
~ASCII -----------------------------------------------------
# ...
 1369140.00000    0.03980   81.85150  146.18150   55.64800    0.15140    3.76780   47.20080    2.50980   15.43420   43.10440
 1369200.00000    0.05040   84.59760  146.51720   56.23740    0.14950    3.99780   49.67640    2.52650   12.95610   31.00910
 1369260.00000    0.05490   86.19730  146.00500   55.42790    0.14760    4.13250   41.57430    2.52240   12.58800   26.97100
 1369320.00000    0.05230   85.18610  142.94521   55.17050    0.13800    4.17730   43.66560    2.50890   11.24850   22.86050
 1369380.00000    0.04770   85.94370  138.88200   55.16370    0.14460    4.10580   45.98260    2.50360   10.28030   20.32840
 1369440.00000    0.03750   79.03690  134.11929   56.01290    0.14630    3.95460   44.95990    2.49840    9.74020   18.63130
 1369500.00000    0.03130   75.13770  131.86940   54.83820    0.14240    3.78930   42.43890    2.49450    9.40260   17.86690
 1369560.00000    0.03250   69.96130  130.03130   53.82700    0.13260    3.70950   41.77610    2.48060    8.85070   16.43530
 1369620.00000    0.03610   72.02310  127.60530   54.47320    0.13800    3.77290   44.49180    2.47450    8.52050   15.43840
 1369680.00000    0.03890   67.60750  126.06790   57.86630    0.14170    3.87750   46.29890    2.47080    8.40910   15.19200
 1369740.00000    0.03020   63.54170  125.76940   60.20170    0.13980    3.80270   47.25340    2.47300    8.49960   15.43960
 1369800.00000    0.02450   64.62760  125.85710   59.51780    0.13130    3.64130   47.79530    2.47410    8.63290   16.31970
 1369860.00000    0.01890   68.40150  124.60600   58.36530    0.13630    3.50540   49.55780    2.47780    8.87390   17.20390
 1369920.00000    0.02210   71.30530  121.65500   57.20840    0.13900    3.45090   53.44560    2.47980    9.09980   19.12340
 1369980.00000    0.01760   73.29090  121.65500   59.08670    0.13920    3.41000   53.45790    2.46290    9.28680   19.26400
 1370040.00000    0.01920   74.83240  121.99510   58.04390    0.14080    3.36210   62.26030    2.44960    9.62510   20.87090
 1370100.00000    0.01340   74.99600  123.02000   57.27620    0.14560    3.36130   64.17890    2.41890   10.14350   19.76800
 1370160.00000    0.01410   75.02980  123.27790   54.97000    0.15450    3.29810   57.21890    2.40410   11.75930   20.04380
 1370220.00000    0.01470   75.96480  123.66180   54.11580    0.15470    3.33110   56.11010    2.38670   15.55700   24.46360
 1370280.00000    0.02560   77.29610  125.69230   49.85460    0.14820    3.31340   65.77730    2.39640   24.12740   35.41750
 1370340.00000    0.02760   80.17820  128.23260   42.14070    0.13120    3.23340   62.19150    2.39630   35.36760   51.29190
 1370400.00000    0.03240   81.21460  131.80290   31.32060    0.12610    3.05250   52.63290    2.39490   43.20080   66.75810
 1370460.00000    0.03000   80.99980  134.00560   23.01140    0.13800    2.90650   55.81680    2.35910   42.40290   84.13960
 1370520.00000    0.03720   80.42930  134.47430   17.23360    0.13250    2.89180   59.24350    2.32790   61.09880   87.40750
 1370580.00000    0.03400   80.04060  134.55730   16.46120    0.12810    2.92310   63.93540    2.29790   89.93820  101.60820
 1370640.00000    0.02940   78.50620  134.50230   16.29240    0.12980    2.98270   61.26810    2.28950  125.82780  114.63520
 1370700.00000    0.02460   77.68550  133.85580   16.91900    0.13940    2.98750   68.09120    2.28990  139.67180  154.26540
 1370760.00000    0.02380   79.00170  133.02161   16.34570    0.14290    3.05440   71.38920    2.29960  140.89030  180.11870
 1370820.00000    0.02060   79.38210  132.50360   15.32140    0.14600    3.11660   81.95160    2.30640  178.21500  189.47591
 1370880.00000    0.02210   80.60750  130.11890   14.79060    0.14480    3.17110   82.61990    2.31500  214.32629  190.28059
 1370940.00000    0.02630   80.53740  128.78850   13.78170    0.15800    3.20550   85.32280    2.31250  269.30341  208.77609
 1371000.00000    0.03440   81.42190  128.88139   13.96710    0.15420    3.16860   90.21280    2.30480  291.75601  230.78120
 1371060.00000    0.03830   83.09660  128.83760   13.87690    0.15160    3.08800  105.03750    2.29420  329.02200  244.44850
 1371120.00000    0.03750   83.82220  128.96069   14.74090    0.14800    2.93070   97.85910    2.27930  333.70691  264.88150
 1371180.00000    0.03680   81.01930  129.31281   16.62720    0.15070    2.82670  108.53720    2.27540  393.33011  284.26831
 1371240.00000    0.03260   81.49910  130.03349   17.40980    0.15490    2.74180  114.40550    2.26460  365.95929  308.87500
 1371300.00000    0.02790   81.56820  130.27000   17.84620    0.15040    2.74620  111.37800    2.25900  453.46860  321.36938
 1371360.00000    0.02780   81.16660  129.83110   16.80440    0.14840    2.85190  114.97930    2.25640  456.23929  321.13339
 1371420.00000    0.02820   81.33100  130.10381   15.04450    0.15490    2.92550  121.81270    2.26010  513.99377  364.58099
 1371480.00000    0.03210   81.71670  130.56090   14.04790    0.14670    2.96690  130.60640    2.26430  494.06641  363.00879
 1371540.00000    0.02750   82.51350  131.02710   13.52730    0.14540    2.84150  133.61639    2.26110  581.28833  351.72021
 1371600.00000    0.02550   83.63610  131.57179   14.26610    0.16780    2.78990  134.22160    2.25550  494.82751  387.17450
 1371660.00000    0.02380   83.37040  132.10890   15.72240    0.16200    2.74640  123.46080    2.25320  492.02789  383.71640
 1371720.00000    0.02480   83.99620  133.50661   16.80230    0.17410    2.83880  154.94780    2.24520  489.90149  408.86731
 1371780.00000    0.03180   85.03390  134.60510   16.72320    0.16780    2.88150  158.75160    2.25270  565.97778  408.88779
 1371840.00000    0.03410   84.99320  134.95151   14.58270    0.16600    2.85540  159.38181    2.25150  513.65302  430.51419
 1371900.00000    0.03630   85.90030  134.34030   13.07770    0.16960    2.75400  159.16000    2.25110  529.10852  396.99911
 1371960.00000    0.02990   84.54570  133.63730   12.92900    0.17060    2.69800  182.03290    2.23600  504.31110  425.83380
 1372020.00000    0.02880   82.86460  133.01250   14.92330    0.16520    2.73030  172.42171    2.23460  543.04688  392.08911
 1372080.00000    0.02890   82.67710  132.15199   17.16370    0.16440    2.80120  170.01660    2.23910  622.81293  435.30801
 1372140.00000    0.03000   82.75680  132.29250   18.30980    0.16560    2.85280  183.02341    2.24490  624.94342  432.05209
 1372200.00000    0.03410   81.81680  132.29250   18.10290    0.16430    2.81640  166.28590    2.25290  643.74707  398.75729
 1372260.00000    0.03240   84.19530  132.42470   17.60900    0.16460    2.79700  173.60989    2.25030  504.77689  437.96301
 1372320.00000    0.02860   84.24950  133.01401   17.37780    0.16750    2.75640  200.00000    2.26400  677.76788  404.48059
 1372380.00000    0.02490   82.12710  133.96370   16.57560    0.16530    3.04320  175.23489    2.25800  521.83588  406.28549
 1372440.00000    0.02850   82.85760  135.04480   14.90070    0.17110    3.14440  170.00430    2.26110  559.39532  404.37521
 1372500.00000    0.03040   83.52960  135.59790   13.46000    0.17070    3.15070  185.99170    2.24600  559.97717  414.11771
 1372560.00000    0.02660   83.57120  135.36060   13.47030    0.17420    2.83860  194.45900    2.24080  492.97629  425.72891
 1372620.00000    0.02020   83.93150  135.18460   14.42760    0.17600    2.58940  170.58090    2.23430  738.17108  428.13708
 1372680.00000    0.01990   83.61990  135.06219   16.69560    0.17990    2.49220  173.12280    2.22820  572.46332  434.14899
 1372740.00000    0.02510   83.93290  135.37801   17.06530    0.17260    2.39330  183.58681    2.23910  545.50659  426.20959
 1372800.00000    0.02130   84.37290  135.09700   17.01640    0.17600    2.37740  184.78540    2.24460  545.32642  416.08771
 1372860.00000    0.02310   82.57840  134.85899   15.91990    0.17310    2.35870  185.96941    2.26200  644.28229  405.00330
 1372920.00000    0.01780   83.72840  134.06799   16.53830    0.17120    2.39830  198.12590    2.25440  527.03607  399.87021
