~Version ---------------------------------------------------
VERS.   2.0 : CWLS log ASCII Standard -VERSION 2.0
WRAP.    NO : One line per depth step
DLM . SPACE : Column Data Section Delimiter
~Well ------------------------------------------------------
STRT.0.1 in             165840.0 : START DEPTH
STOP.0.1 in            1492980.0 : STOP DEPTH
STEP.0.1 in                 60.0 : STEP
NULL.                    -999.25 : NULL VALUE
COMP.                            : COMPANY
WELL.                   15/9-F-5 : WELL
FLD .                      VOLVE : FIELD
LOC .                            : LOCATION
PROV.                            : PROVINCE
CNTY.                            : COUNTY
STAT.                            : STATE
CTRY.                            : COUNTRY
SRVC.    CROCKER DATA PROCESSING : SERVICE COMPANY
DATE. 2009-02-18 14:44:38.068000 : DATE
UWI .                            : UNIQUE WELL ID
API .                            : API NUMBER
~Curve Information -----------------------------------------
DEPTH.0.1 in       : Measured Depth
CALI .inches       : CALI:UNKNOWN:rC:NONE:v1
DRHO .g/cm3        : DRHO:UNKNOWN:rC:NONE:v1
DT   .us/ft        : DT:UNKNOWN:rC:NONE:v1
GR   .API          : GR:UNKNOWN:rC:NONE:v1
NPHI .v/v_decimal  : NPHI:UNKNOWN:rC:NONE:v1
RD   .UNKNOWN      : RD:UNKNOWN:rC:NONE:v1
RHOB .g/cm3        : RHOB:UNKNOWN:rC:NONE:v1
RS   .UNKNOWN      : RS:UNKNOWN:rC:NONE:v1
RT   .ohm.m        : RT:UNKNOWN:rC:NONE:v1
~Params ----------------------------------------------------
PROD   .                        PETROLOG : 
PROG   .            ['PETROLOG-TO-DLIS'] : 
RUN    .                              [] : 
DESCENT.                              [] : 
VERSION.                           10.00 : 
LINEAGE.      Python-converted from DLIS : 
ORFILE . WLC_PETRO_COMPUTED_INPUT_1.DLIS : 
~Other -----------------------------------------------------
~ASCII -----------------------------------------------------
# ...
 1341600.00000    8.50970    0.03000   81.54030   90.67950    0.22550    2.06050    2.55080    1.85180    1.87070
 1341660.00000    8.50020    0.03000   80.53310   86.85040    0.21600    2.07950    2.57930    1.91840    1.89930
 1341720.00000    8.48000    0.02010   79.33800   82.71260    0.21230    2.01000    2.58990    1.97950    2.00910
 1341780.00000    8.48000    0.02000   78.04500   81.32310    0.21710    1.95000    2.57980    2.02980    2.11930
 1341840.00000    8.49000    0.02020   78.77590   83.02560    0.22490    2.03130    2.55980    1.99840    2.02710
 1341900.00000    8.49000    0.02980   80.23890   86.22600    0.23950    2.08850    2.55030    1.93180    1.90320
 1341960.00000    8.49000    0.03000   80.43730   92.24600    0.22030    2.08000    2.54010    1.93990    1.90000
 1342020.00000    8.50000    0.02000   80.46720   93.91970    0.22740    2.09000    2.53000    1.91010    1.90040
 1342080.00000    8.53940    0.02020   81.46330   93.85700    0.22620    2.06040    2.53000    1.93000    1.98040
 1342140.00000    8.51080    0.02970   82.21110   93.71410    0.23580    2.07940    2.53000    1.93000    1.99940
 1342200.00000    8.51000    0.03000   82.24540   95.50570    0.23200    2.12000    2.53000    1.92010    1.96050
 1342260.00000    8.50000    0.04000   82.82950   99.24000    0.23170    2.21000    2.53000    1.86000    1.96000
 1342320.00000    8.51020    0.04020   83.11680   99.63640    0.23770    2.29040    2.53000    1.81000    1.88960
 1342380.00000    8.51970    0.04970   83.54550   98.35050    0.24140    2.30940    2.53000    1.81000    1.87060
 1342440.00000    8.51020    0.05980   84.19030   96.12550    0.24070    2.20180    2.52020    1.89860    2.03730
 1342500.00000    8.52000    0.07000   84.68820   94.96000    0.23280    2.20000    2.53000    1.99000    2.09000
 1342560.00000    8.53970    0.08980   84.37820   95.44260    0.23470    2.23110    2.55050    2.05060    2.11050
 1342620.00000    8.51970    0.08000   82.58790   90.48740    0.22680    2.29910    2.58090    2.09420    2.14330
 1342680.00000    8.51020    0.08000   80.53450   84.37240    0.21580    2.27050    2.60950    2.22760    2.24810
 1342740.00000    8.49000    0.07000   77.64390   78.37000    0.21560    2.15000    2.61000    2.27000    2.43000
 1342800.00000    8.44000    0.06010   75.41120   78.92470    0.22100    2.14000    2.58990    2.28880    2.38870
 1342860.00000    8.47110    0.07000   75.85990   82.32680    0.21790    2.21950    2.57940    2.19830    2.28840
 1342920.00000    8.50920    0.07000   77.19130   85.67960    0.22380    2.20040    2.56040    2.14120    2.23120
 1342980.00000    8.50000    0.07000   79.31120   88.80360    0.23560    2.21000    2.55010    2.05050    2.20020
 1343040.00000    8.52000    0.05010   81.62480   90.74750    0.22530    2.27000    2.54000    2.00930    2.16830
 1343100.00000    8.50050    0.06000   83.28370   92.42120    0.23260    2.32950    2.54000    1.93920    2.01000
 1343160.00000    8.51960    0.06000   84.36410   94.37390    0.23480    2.31040    2.54000    1.91070    2.01000
 1343220.00000    8.51000    0.06000   84.71490   94.28110    0.21540    2.22000    2.53010    1.90010    2.07940
 1343280.00000    8.52000    0.05000   84.90170   94.66100    0.23700    2.15000    2.51000    1.90950    1.88980
 1343340.00000    8.54910    0.05000   83.71320   96.03880    0.24270    2.14490    2.51000    1.84750    1.86550
 1343400.00000    8.51100    0.05000   84.10160   96.41020    0.24640    2.35450    2.51000    1.74280    1.67500
 1343460.00000    8.49000    0.04010   85.20870   98.23050    0.24660    2.27000    2.51000    1.74990    1.73930
 1343520.00000    8.49000    0.05020   86.02370   96.36890    0.25160    2.08000    2.52050    1.84000    1.87000
 1343580.00000    8.48000    0.08960   86.34270   96.08940    0.23160    2.10180    2.61180    1.84240    1.86800
 1343640.00000    8.48000    0.07060   84.51050   92.72710    0.22060    2.18750    2.69750    1.95670    1.77280
 1343700.00000    8.48000   -0.00890   82.60210   91.78150    0.20670    2.12000    2.73950    2.09810    2.04630
 1343760.00000    8.49000   -0.05000   82.80090   92.56000    0.21710    2.03000    2.66000    2.08000    2.32000
 1343820.00000    8.50050   -0.03880   84.30370   95.69170    0.23710    2.10050    2.56000    1.97910    2.13740
 1343880.00000    8.52910    0.02790   85.61880   97.41570    0.22190    2.12910    2.56000    1.93150    1.99450
 1343940.00000    8.52020    0.03000   84.91890   99.81190    0.24900    2.14970    2.51080    1.95950    1.97030
 1344000.00000    8.50000    0.03000   84.40860   98.45000    0.25390    2.18000    2.49000    1.97000    1.98000
 1344060.00000    8.50980    0.03000   85.09850   96.98810    0.24080    2.11170    2.48020    2.03970    2.18890
 1344120.00000    8.50030    0.03000   85.98360   95.59860    0.22330    2.21150    2.49060    2.02090    2.12000
 1344180.00000    8.50980    0.03000   85.41470   94.28410    0.22890    2.25910    2.50960    2.04950    2.12000
 1344240.00000    8.52000    0.03000   84.45570   94.20000    0.23540    2.31000    2.52000    1.96000    2.00000
 1344300.00000    8.53000    0.02000   83.59260   94.20250    0.24650    2.34000    2.51010    1.98970    2.00190
 1344360.00000    8.52920    0.02050   83.11020   95.88050    0.25560    2.32830    2.52140    1.97300    2.14140
 1344420.00000    8.50060    0.03960   83.31670   96.24240    0.23500    2.27120    2.56900    2.07780    2.18900
 1344480.00000    8.49000    0.02010   83.90770   95.87200    0.24150    2.30000    2.61970    2.08000    2.14030
 1344540.00000    8.54000    0.00990   83.01050   94.15530    0.22140    2.37000    2.67990    2.12100    2.13200
 1344600.00000    8.51000    0.00030   81.13800   92.69770    0.22530    2.37070    2.66900    2.21020    2.32030
 1344660.00000    8.51000    0.00980   80.12770   89.18300    0.21710    2.39930    2.63090    2.21980    2.32980
 1344720.00000    8.53000    0.01990   79.05680   87.30450    0.19760    2.27000    2.60020    2.27950    2.58790
 1344780.00000    8.51000    0.02010   78.26720   87.69190    0.24830    2.24000    2.56980    2.39910    2.73670
 1344840.00000    8.50980    0.03020   79.21080   90.44170    0.23700    2.39190    2.55000    2.28820    2.32840
 1344900.00000    8.50030    0.03970   80.72850   91.78480    0.19240    2.46800    2.55000    2.21200    2.26170
 1344960.00000    8.52000    0.04990   81.27240   94.80780    0.21820    2.42000    2.54010    2.16050    2.22040
 1345020.00000    8.54000    0.06000   81.46230   96.01040    0.22080    2.37000    2.53990    2.14030    2.24010
 1345080.00000    8.51920    0.06000   82.74150   99.85160    0.21570    2.34060    2.52960    2.18780    2.26020
 1345140.00000    8.48110    0.06000   83.13000  101.35660    0.23950    2.36920    2.51060    2.08300    2.26970
 1345200.00000    8.51000    0.06990   84.18250   99.64370    0.23820    2.35000    2.51000    2.07010    2.09240
 1345260.00000    8.53000    0.06000   85.74090   97.87000    0.24000    2.37000    2.51000    2.04000    2.02000
 1345320.00000    8.51970    0.05980   84.99650   93.03320    0.23190    2.31970    2.53000    2.07950    2.07120
 1345380.00000    8.50060    0.05030   83.92260   91.57590    0.23850    2.30060    2.53000    2.05090    2.13790
 1345440.00000    8.49020    0.04020   83.60780   88.10570    0.21340    2.25080    2.53980    2.05000    2.14000
 1345500.00000    8.50000    0.04000   82.08750   85.55000    0.21910    2.19000    2.54000    2.14000    2.17000
 1345560.00000    8.51030    0.04940   80.25700   83.38020    0.21920    2.19020    2.59080    2.11000    2.11900
 1345620.00000    8.53060    0.00970   80.15770   80.92850    0.19080    2.19970    2.64180    2.11060    2.06210
 1345680.00000    8.54960    0.00020   81.12280   80.88090    0.17970    2.19020    2.69900    2.12970    2.12880
 1345740.00000    8.54000   -0.01000   82.91660   85.64000    0.18100    2.10000    2.63000    2.09000    2.25000
 1345800.00000    8.52000    0.03010   84.86430   89.12770    0.20710    2.16000    2.57960    1.99970    2.08050
