~Version ---------------------------------------------------
VERS.   2.0 : CWLS log ASCII Standard -VERSION 2.0
WRAP.    NO : One line per depth step
DLM . SPACE : Column Data Section Delimiter
~Well ------------------------------------------------------
STRT.0.1 in             165840.0 : START DEPTH
STOP.0.1 in            1492980.0 : STOP DEPTH
STEP.0.1 in                 60.0 : STEP
NULL.                    -999.25 : NULL VALUE
COMP.                            : COMPANY
WELL.                   15/9-F-5 : WELL
FLD .                      VOLVE : FIELD
LOC .                            : LOCATION
PROV.                            : PROVINCE
CNTY.                            : COUNTY
STAT.                            : STATE
CTRY.                            : COUNTRY
SRVC.    CROCKER DATA PROCESSING : SERVICE COMPANY
DATE. 2009-02-18 14:44:38.068000 : DATE
UWI .                            : UNIQUE WELL ID
API .                            : API NUMBER
~Curve Information -----------------------------------------
DEPTH.0.1 in       : Measured Depth
CALI .inches       : CALI:UNKNOWN:rC:NONE:v1
DRHO .g/cm3        : DRHO:UNKNOWN:rC:NONE:v1
DT   .us/ft        : DT:UNKNOWN:rC:NONE:v1
GR   .API          : GR:UNKNOWN:rC:NONE:v1
NPHI .v/v_decimal  : NPHI:UNKNOWN:rC:NONE:v1
RD   .UNKNOWN      : RD:UNKNOWN:rC:NONE:v1
RHOB .g/cm3        : RHOB:UNKNOWN:rC:NONE:v1
RS   .UNKNOWN      : RS:UNKNOWN:rC:NONE:v1
RT   .ohm.m        : RT:UNKNOWN:rC:NONE:v1
~Params ----------------------------------------------------
PROD   .                        PETROLOG : 
PROG   .            ['PETROLOG-TO-DLIS'] : 
RUN    .                              [] : 
DESCENT.                              [] : 
VERSION.                           10.00 : 
LINEAGE.      Python-converted from DLIS : 
ORFILE . WLC_PETRO_COMPUTED_INPUT_1.DLIS : 
~Other -----------------------------------------------------
~ASCII -----------------------------------------------------
# ...
 1115820.00000 -999.25000    0.52000 -999.25000   34.91300    0.45810 -999.25000    2.11000    0.35950    0.40350
 1115880.00000 -999.25000    0.52000 -999.25000   34.91300    0.45810 -999.25000    2.11000    0.40000    0.45800
 1115940.00000 -999.25000    0.52000 -999.25000   34.91300    0.45810 -999.25000    2.11000    0.41900    0.44800
 1116000.00000 -999.25000    0.52000 -999.25000   40.48950    0.45810 -999.25000    2.11000    0.43800    0.43800
 1116060.00000 -999.25000    0.52000 -999.25000   46.06600    0.45810 -999.25000    2.11000    0.36500    0.31900
 1116120.00000 -999.25000    0.52000 -999.25000   40.32900    0.45810 -999.25000    2.11000    0.20850    0.35050
 1116180.00000 -999.25000    0.52000 -999.25000   37.62100    0.45810 -999.25000    2.11000    0.05200    0.38200
 1116240.00000 -999.25000    0.52000 -999.25000   34.91300    0.45810 -999.25000    2.11000    0.36500    0.36500
 1116300.00000 -999.25000    0.52000 -999.25000   34.91300    0.45810 -999.25000    2.11000    0.34950    0.34200
 1116360.00000 -999.25000    0.52000 -999.25000   35.79800    0.45810 -999.25000    2.11000    0.33400    0.31900
 1116420.00000 -999.25000    0.52000 -999.25000   36.68300    0.45810 -999.25000    2.11000    0.38200    0.36500
 1116480.00000 -999.25000    0.52000 -999.25000   38.48800    0.45810 -999.25000    2.11000    0.38200    0.36500
 1116540.00000 -999.25000    0.52000 -999.25000   37.29630    0.45810 -999.25000    2.11000    0.38200    0.36500
 1116600.00000 -999.25000    0.52000 -999.25000   36.10470    0.45810 -999.25000    2.11000    0.38200    0.36500
 1116660.00000 -999.25000    0.52000 -999.25000   34.91300    0.45810 -999.25000    2.11000    0.38200    0.36500
 1116720.00000 -999.25000    0.52000 -999.25000   36.68300    0.45810 -999.25000    2.11000    0.35050    0.34200
 1116780.00000 -999.25000    0.52000 -999.25000   35.79800    0.45810 -999.25000    2.11000    0.31900    0.31900
 1116840.00000 -999.25000    0.52000 -999.25000   34.91300    0.45810 -999.25000    2.11000    0.31900    0.31900
 1116900.00000 -999.25000    0.52000 -999.25000   33.18000    0.45810 -999.25000    2.11000    0.32650    0.30550
 1116960.00000 -999.25000    0.52000 -999.25000   34.34770    0.45810 -999.25000    2.11000    0.33400    0.29200
 1117020.00000 -999.25000    0.52000 -999.25000   35.51530    0.45810 -999.25000    2.11000    0.33400    0.31300
 1117080.00000 -999.25000    0.52000 -999.25000   36.68300    0.45810 -999.25000    2.11000    0.32650    0.33400
 1117140.00000 -999.25000    0.52000 -999.25000   38.48800    0.45810 -999.25000    2.11000    0.31900    0.32650
 1117200.00000 -999.25000    0.52000 -999.25000   37.58550    0.45810 -999.25000    2.11000    0.31900    0.31900
 1117260.00000 -999.25000    0.52000 -999.25000   36.68300    0.45810 -999.25000    2.11000    0.31900    0.29200
 1117320.00000 -999.25000    0.52000 -999.25000   36.68300    0.45810 -999.25000    2.11000    0.31200    0.28550
 1117380.00000 -999.25000    0.52000 -999.25000   37.28470    0.45810 -999.25000    2.11000    0.30500    0.27900
 1117440.00000 -999.25000    0.52000 -999.25000   37.88630    0.45810 -999.25000    2.11000    0.30500    0.30500
 1117500.00000 -999.25000    0.52000 -999.25000   38.48800    0.45810 -999.25000    2.11000    0.29200    0.29200
 1117560.00000 -999.25000    0.52000 -999.25000   38.48800    0.45810 -999.25000    2.11000    0.27900    0.27900
 1117620.00000 -999.25000    0.52000 -999.25000   36.70050    0.45810 -999.25000    2.11000    0.28550    0.27900
 1117680.00000 -999.25000    0.52000 -999.25000   34.91300    0.45810 -999.25000    2.11000    0.29200    0.27900
 1117740.00000 -999.25000    0.52000 -999.25000   40.32900    0.45810 -999.25000    2.11000    0.27900    0.27250
 1117800.00000 -999.25000    0.52000 -999.25000   40.32900    0.45810 -999.25000    2.11000    0.26600    0.26600
 1117860.00000 -999.25000    0.52000 -999.25000   40.32900    0.45810 -999.25000    2.11000    0.26600    0.25500
 1117920.00000 -999.25000    0.52000 -999.25000   40.32900    0.45810 -999.25000    2.11000    0.26600    0.26050
 1117980.00000 -999.25000    0.52000 -999.25000   36.68300    0.45810 -999.25000    2.11000    0.26600    0.26600
 1118040.00000 -999.25000    0.52000 -999.25000   34.93150    0.45810 -999.25000    2.11000    0.26600    0.26600
 1118100.00000 -999.25000    0.52000 -999.25000   33.18000    0.45810 -999.25000    2.11000    0.26600    0.26600
 1118160.00000 -999.25000    0.52000 -999.25000   34.91300    0.45810 -999.25000    2.11000    0.26600    0.26050
 1118220.00000 -999.25000    0.52000 -999.25000   35.79800    0.45810 -999.25000    2.11000    0.26600    0.25500
 1118280.00000 -999.25000    0.52000 -999.25000   36.68300    0.45810 -999.25000    2.11000    0.27900    0.26700
 1118340.00000 -999.25000    0.52000 -999.25000   38.48800    0.45810 -999.25000    2.11000    0.29200    0.27900
 1118400.00000 -999.25000    0.52000 -999.25000   42.20600    0.45810 -999.25000    2.11000    0.27900    0.27900
 1118460.00000 -999.25000    0.52000 -999.25000   37.69300    0.45810 -999.25000    2.11000    0.26600    0.26600
 1118520.00000 -999.25000    0.52000 -999.25000   33.18000    0.45810 -999.25000    2.11000    0.26600    0.27250
 1118580.00000 -999.25000    0.52000 -999.25000   38.48800    0.45810 -999.25000    2.11000    0.26600    0.27900
 1118640.00000 -999.25000    0.52000 -999.25000   35.83400    0.45810 -999.25000    2.11000    0.27250    0.27900
 1118700.00000 -999.25000    0.52000 -999.25000   33.18000    0.45810 -999.25000    2.11000    0.27900    0.27900
 1118760.00000 -999.25000    0.52000 -999.25000   31.48200    0.45810 -999.25000    2.11000    0.27250    0.27900
 1118820.00000 -999.25000    0.52000 -999.25000   34.08250    0.45810 -999.25000    2.11000    0.26600    0.27900
 1118880.00000 -999.25000    0.52000 -999.25000   36.68300    0.45810 -999.25000    2.11000    0.27900    0.26600
 1118940.00000 -999.25000    0.52000 -999.25000   38.48800    0.45810 -999.25000    2.11000    0.27900    0.26050
 1119000.00000 -999.25000    0.52000 -999.25000   37.88630    0.45810 -999.25000    2.11000    0.27900    0.25500
 1119060.00000 -999.25000    0.52000 -999.25000   37.28470    0.45810 -999.25000    2.11000    0.27250    0.25500
 1119120.00000 -999.25000    0.52000 -999.25000   36.68300    0.45810 -999.25000    2.11000    0.26600    0.25500
 1119180.00000 -999.25000    0.52000 -999.25000   40.32900    0.45810 -999.25000    2.11000    0.27250    0.26050
 1119240.00000 -999.25000    0.52000 -999.25000   39.40850    0.45810 -999.25000    2.11000    0.27900    0.26600
 1119300.00000 -999.25000    0.52000 -999.25000   38.48800    0.45810 -999.25000    2.11000    0.27900    0.27900
 1119360.00000 -999.25000    0.52000 -999.25000   39.40850    0.45810 -999.25000    2.11000    0.28550    0.28550
 1119420.00000 -999.25000    0.52000 -999.25000   40.32900    0.45810 -999.25000    2.11000    0.29200    0.29200
 1119480.00000 -999.25000    0.52000 -999.25000   38.50600    0.45810 -999.25000    2.11000    0.29200    0.28550
 1119540.00000 -999.25000    0.52000 -999.25000   36.68300    0.45810 -999.25000    2.11000    0.29200    0.27900
 1119600.00000 -999.25000    0.52000 -999.25000   33.18000    0.45810 -999.25000    2.11000    0.29850    0.28550
 1119660.00000 -999.25000    0.52000 -999.25000   34.94930    0.45810 -999.25000    2.11000    0.30500    0.29200
 1119720.00000 -999.25000    0.52000 -999.25000   36.71870    0.45810 -999.25000    2.11000    0.27900    0.27900
 1119780.00000 -999.25000    0.52000 -999.25000   38.48800    0.45810 -999.25000    2.11000    0.27900    0.26600
 1119840.00000 -999.25000    0.52000 -999.25000   40.32900    0.45810 -999.25000    2.11000    0.27900    0.26600
 1119900.00000 -999.25000    0.52000 -999.25000   37.62100    0.45810 -999.25000    2.11000    0.27250    0.26600
 1119960.00000 -999.25000    0.52000 -999.25000   34.91300    0.45810 -999.25000    2.11000    0.26600    0.27900
 1120020.00000 -999.25000    0.52000 -999.25000   36.70050    0.45810 -999.25000    2.11000    0.27250    0.27900
