~Version ---------------------------------------------------
VERS.   2.0 : CWLS log ASCII Standard -VERSION 2.0
WRAP.    NO : One line per depth step
DLM . SPACE : Column Data Section Delimiter
~Well ------------------------------------------------------
STRT.0.1 in             165840.0 : START DEPTH
STOP.0.1 in            1492980.0 : STOP DEPTH
STEP.0.1 in                 60.0 : STEP
NULL.                    -999.25 : NULL VALUE
COMP.                            : COMPANY
WELL.                   15/9-F-5 : WELL
FLD .                      VOLVE : FIELD
LOC .                            : LOCATION
PROV.                            : PROVINCE
CNTY.                            : COUNTY
STAT.                            : STATE
CTRY.                            : COUNTRY
SRVC.    CROCKER DATA PROCESSING : SERVICE COMPANY
DATE. 2009-02-18 14:44:38.068000 : DATE
UWI .                            : UNIQUE WELL ID
API .                            : API NUMBER
~Curve Information -----------------------------------------
DEPTH.0.1 in       : Measured Depth
CALI .inches       : CALI:UNKNOWN:rC:NONE:v1
DRHO .g/cm3        : DRHO:UNKNOWN:rC:NONE:v1
DT   .us/ft        : DT:UNKNOWN:rC:NONE:v1
GR   .API          : GR:UNKNOWN:rC:NONE:v1
NPHI .v/v_decimal  : NPHI:UNKNOWN:rC:NONE:v1
RD   .UNKNOWN      : RD:UNKNOWN:rC:NONE:v1
RHOB .g/cm3        : RHOB:UNKNOWN:rC:NONE:v1
RS   .UNKNOWN      : RS:UNKNOWN:rC:NONE:v1
RT   .ohm.m        : RT:UNKNOWN:rC:NONE:v1
~Params ----------------------------------------------------
PROD   .                        PETROLOG : 
PROG   .            ['PETROLOG-TO-DLIS'] : 
RUN    .                              [] : 
DESCENT.                              [] : 
VERSION.                           10.00 : 
LINEAGE.      Python-converted from DLIS : 
ORFILE . WLC_PETRO_COMPUTED_INPUT_1.DLIS : 
~Other -----------------------------------------------------
~ASCII -----------------------------------------------------
# ...
 1367160.00000    8.52020    0.04040   71.80660   27.75780    0.12690   10.90340    2.77050    4.39040    7.45530
 1367220.00000    8.50000    0.03010   78.17990   26.57900    0.12250   19.42000    2.71050    5.09460   14.03660
 1367280.00000    8.50000    0.01000   79.51050   27.07900    0.12120   46.37000    2.61910    5.84540   10.88000
 1367340.00000    8.55000    0.01070   79.94320   28.18110    0.12650   29.01320    2.50800    6.58640   17.09440
 1367400.00000    8.55000    0.03930   79.82400   27.38100    0.12830   18.91110    2.42230    9.39630   17.70400
 1367460.00000    8.53000    0.05980   77.56930   27.26110    0.13790   18.19000    2.37050   12.74470   23.10200
 1367520.00000    8.52000    0.06000   75.68250   27.41440    0.14260   19.58000    2.31990   17.09410   26.80950
 1367580.00000    8.45000    0.05960   76.18990   26.33800    0.14030   26.00690    2.29960   23.55860   50.83700
 1367640.00000    8.45000    0.04060   77.24690   24.81400    0.15820   18.95570    2.28060   28.73070   44.50290
 1367700.00000    8.45000    0.04000   77.74460   21.71130    0.15650   16.12000    2.27010   38.47040   51.73970
 1367760.00000    8.47000    0.05000   78.73750   20.77000    0.15240   14.94000    2.28000   18.12000   26.34000
 1367820.00000    8.46020    0.05000   79.88700   20.60450    0.17250   13.69190    2.28000   24.37920   26.79150
 1367880.00000    8.46970    0.05000   80.71120   21.93800    0.17680   13.79680    2.28000   23.24570   27.42020
 1367940.00000    8.49950    0.04020   80.80540   24.05620    0.17660   13.98690    2.28000   21.74380   26.65280
 1368000.00000    8.48000    0.04000   79.41840   26.22000    0.19500   13.30000    2.29000   18.26000   22.42000
 1368060.00000    8.48940    0.03980   81.17900   29.36720    0.19350   13.43260    2.28980   16.00810   19.89380
 1368120.00000    8.44940    0.02970   82.74490   32.31530    0.19210   13.59520    2.27940   13.41830   16.39230
 1368180.00000    8.43030    0.02020   82.50680   33.75360    0.18670   13.44270    2.26030   13.04680   14.87780
 1368240.00000    8.48000    0.02000   83.71220   35.85000    0.19540   13.95000    2.26000   11.38000   12.95000
 1368300.00000    8.50000    0.03010   87.13430   37.60530    0.19930   13.68000    2.27010   12.22350   14.86770
 1368360.00000    8.46030    0.04000   88.70630   39.47390    0.19370   13.89570    2.28000   12.48080   13.98640
 1368420.00000    8.46980    0.04000   89.92090   39.26440    0.19570   14.08600    2.28000   12.50940   14.90080
 1368480.00000    8.50000    0.04000   88.17740   38.10620    0.20280   13.73000    2.28000   12.30110   13.27880
 1368540.00000    8.47000    0.04000   85.90070   34.50260    0.19180   13.69000    2.27000   13.09660   12.89600
 1368600.00000    8.47050    0.04020   85.98820   31.88400    0.19560   13.71830    2.27000   13.71420   13.48170
 1368660.00000    8.48960    0.04980   87.21300   28.98840    0.18710   14.03280    2.27000   13.87620   14.69140
 1368720.00000    8.47000    0.05000   88.06910   29.94180    0.19290   14.58000    2.27990   13.85020   15.86080
 1368780.00000    8.47000    0.04990   87.59610   31.25140    0.19350   14.32000    2.31000   13.54400   13.56400
 1368840.00000    8.48040    0.04020   86.28780   33.91550    0.18140   14.54960    2.31000   12.78810   12.80340
 1368900.00000    8.49950    0.04980   84.57980   34.57280    0.19610   14.53050    2.31000   12.28320   12.09850
 1368960.00000    8.53000    0.05000   82.80770   33.21480    0.18510   14.54000    2.30010   11.65660   12.54500
 1369020.00000    8.47000    0.04990   80.87120   31.02690    0.19080   14.81000    2.29990   11.73310   13.31440
 1369080.00000    8.49920    0.04000   81.57300   30.45920    0.17410   14.81430    2.27980   12.31780   14.11620
 1369140.00000    8.46110    0.04000   83.66160   30.89740    0.19560   15.01410    2.27030   12.68930   13.45900
 1369200.00000    8.47000    0.04990   85.56610   33.25830    0.19250   15.20000    2.27000   13.02560   13.49920
 1369260.00000    8.49000    0.06000   85.50300   33.69000    0.19430   15.22000    2.29000   13.32000   14.05000
 1369320.00000    8.51000    0.06000   84.95940   34.47620    0.17830   15.29900    2.27980   13.53490   14.07350
 1369380.00000    8.51000    0.06000   86.69780   34.26660    0.20520   15.24180    2.27030   13.25870   13.72110
 1369440.00000    8.50020    0.06000   89.33400   33.40390    0.18880   15.46650    2.25030   14.29300   14.61530
 1369500.00000    8.48000    0.06000   89.98510   32.40000    0.21970   15.88000    2.24000   15.04000   15.59000
 1369560.00000    8.47020    0.06020   89.00410   31.86740    0.18430   15.75610    2.25020   15.22820   15.43530
 1369620.00000    8.48000    0.07030   87.64620   31.72440    0.18920   16.12650    2.26000   15.73900   15.75430
 1369680.00000    8.48000    0.07980   85.86450   32.18160    0.20290   16.33620    2.26000   16.02470   15.57330
 1369740.00000    8.50000    0.08000   86.08660   31.78000    0.20140   16.46000    2.25000   16.42000   15.74000
 1369800.00000    8.47000    0.08000   87.27410   32.71480    0.20460   16.44000    2.24000   15.95990   15.76160
 1369860.00000    8.46000    0.08000   87.59590   33.06860    0.20740   16.73230    2.24000   15.94230   15.88160
 1369920.00000    8.46000    0.08000   86.54850   33.02100    0.18530   17.15100    2.24000   15.67560   15.93880
 1369980.00000    8.49000    0.08990   85.32900   32.06510    0.18250   17.66000    2.24990   16.02810   16.80540
 1370040.00000    8.49000    0.09000   86.45040   31.21760    0.19570   17.91000    2.26000   16.67770   17.36120
 1370100.00000    8.49950    0.08980   88.49330   30.95250    0.20870   18.18560    2.25950   17.40020   17.48020
 1370160.00000    8.48040    0.08020   89.95240   29.52380    0.21910   18.78600    2.24040   17.79080   17.87080
 1370220.00000    8.50000    0.08000   89.25150   29.47020    0.20640   18.92000    2.24000   18.74240   18.46530
 1370280.00000    8.52000    0.08000   86.52110   31.07730    0.19290   19.11000    2.23010   19.11240   19.10660
 1370340.00000    8.54000    0.07980   84.67500   33.19750    0.21430   19.53620    2.24020   19.41180   19.92540
 1370400.00000    8.54000    0.07020   85.32850   32.24500    0.20420   19.79320    2.24970   19.48800   20.15400
 1370460.00000    8.52000    0.07000   86.81430   30.11270    0.18040   20.22000    2.26980   20.10340   20.33810
 1370520.00000    8.50000    0.05990   87.36160   29.95680    0.18730   19.98000    2.26990   20.44190   19.55280
 1370580.00000    8.48000    0.04000   86.73520   29.34740    0.19390   20.67980    2.25980   20.78940   20.08560
 1370640.00000    8.48000    0.04000   86.10250   28.74730    0.19850   21.14680    2.25030   20.76080   20.35230
 1370700.00000    8.50000    0.04000   85.91550   27.70390    0.18190   21.13000    2.24010   20.07920   20.04430
 1370760.00000    8.46000    0.05000   84.82240   27.45000    0.19630   21.29000    2.25000   19.90000   19.82000
 1370820.00000    8.45070    0.05000   85.40840   30.13590    0.18730   22.02650    2.26000   20.95490   21.64970
 1370880.00000    8.48880    0.05000   85.15170   32.63140    0.17930   23.40630    2.26000   21.22160   23.81190
 1370940.00000    8.47030    0.05980   86.89340   34.91420    0.19040   23.50910    2.26980   20.47230   21.54790
 1371000.00000    8.48000    0.06000   89.20970   35.18000    0.19310   24.33000    2.28000   20.13000   21.91000
 1371060.00000    8.48890    0.05980   89.37180   32.25180    0.18440   24.64620    2.26980   19.55090   23.82670
 1371120.00000    8.42060    0.04970   87.55470   31.74040    0.19330   25.64140    2.26000   19.02750   21.77160
 1371180.00000    8.43960    0.04020   85.40250   31.43560    0.18790   25.99340    2.26000   20.21810   21.50490
 1371240.00000    8.47000    0.04000   84.08810   31.44000    0.21060   25.76000    2.26000   21.17000   24.15000
 1371300.00000    8.46000    0.04000   84.68770   28.87170    0.18610   27.09000    2.25000   21.66310   25.73680
 1371360.00000    8.43970    0.04000   87.77470   26.00320    0.20020   27.24430    2.24970   21.94830   25.56900
