~Version ---------------------------------------------------
VERS.   2.0 : CWLS log ASCII Standard -VERSION 2.0
WRAP.    NO : One line per depth step
DLM . SPACE : Column Data Section Delimiter
~Well ------------------------------------------------------
STRT.0.1 in             165840.0 : START DEPTH
STOP.0.1 in            1492980.0 : STOP DEPTH
STEP.0.1 in                 60.0 : STEP
NULL.                    -999.25 : NULL VALUE
COMP.                            : COMPANY
WELL.                   15/9-F-5 : WELL
FLD .                      VOLVE : FIELD
LOC .                            : LOCATION
PROV.                            : PROVINCE
CNTY.                            : COUNTY
STAT.                            : STATE
CTRY.                            : COUNTRY
SRVC.    CROCKER DATA PROCESSING : SERVICE COMPANY
DATE. 2009-02-18 14:44:38.068000 : DATE
UWI .                            : UNIQUE WELL ID
API .                            : API NUMBER
~Curve Information -----------------------------------------
DEPTH.0.1 in       : Measured Depth
CALI .inches       : CALI:UNKNOWN:rC:NONE:v1
DRHO .g/cm3        : DRHO:UNKNOWN:rC:NONE:v1
DT   .us/ft        : DT:UNKNOWN:rC:NONE:v1
GR   .API          : GR:UNKNOWN:rC:NONE:v1
NPHI .v/v_decimal  : NPHI:UNKNOWN:rC:NONE:v1
RD   .UNKNOWN      : RD:UNKNOWN:rC:NONE:v1
RHOB .g/cm3        : RHOB:UNKNOWN:rC:NONE:v1
RS   .UNKNOWN      : RS:UNKNOWN:rC:NONE:v1
RT   .ohm.m        : RT:UNKNOWN:rC:NONE:v1
~Params ----------------------------------------------------
PROD   .                        PETROLOG : 
PROG   .            ['PETROLOG-TO-DLIS'] : 
RUN    .                              [] : 
DESCENT.                              [] : 
VERSION.                           10.00 : 
LINEAGE.      Python-converted from DLIS : 
ORFILE . WLC_PETRO_COMPUTED_INPUT_1.DLIS : 
~Other -----------------------------------------------------
~ASCII -----------------------------------------------------
# ...
 1192500.00000 -999.25000    0.06270   72.25810   13.37150    0.14460 -999.25000    2.53000    2.41750    2.54600
 1192560.00000 -999.25000    0.05730   74.82770   13.60200    0.15650 -999.25000    2.50000    2.28900    2.34470
 1192620.00000 -999.25000    0.05200   76.22740   13.83250    0.16090 -999.25000    2.47000    2.16050    2.14330
 1192680.00000 -999.25000    0.06670   73.28680   14.06300    0.16540 -999.25000    2.47670    2.03200    1.94200
 1192740.00000 -999.25000    0.08130   70.42350   12.63070    0.16990 -999.25000    2.48330    1.87130    1.81130
 1192800.00000 -999.25000    0.09600   70.43640   11.19830    0.17030 -999.25000    2.49000    1.71070    1.68070
 1192860.00000 -999.25000    0.09330   72.68110    9.76600    0.17080 -999.25000    2.49330    1.55000    1.55000
 1192920.00000 -999.25000    0.09070   74.23690   10.89100    0.17130 -999.25000    2.49670    1.57370    1.59870
 1192980.00000 -999.25000    0.08800   74.42630   12.01600    0.17170 -999.25000    2.50000    1.59730    1.64730
 1193040.00000 -999.25000    0.08400   74.26380   13.14100    0.16660 -999.25000    2.49330    1.62100    1.69600
 1193100.00000 -999.25000    0.08000   73.68990   14.09400    0.16150 -999.25000    2.48670    1.67970    1.75750
 1193160.00000 -999.25000    0.07600   74.22470   15.04700    0.15640 -999.25000    2.48000    1.73850    1.81900
 1193220.00000 -999.25000    0.06800   74.35730   16.00000    0.15400 -999.25000    2.49250    1.79730    1.88050
 1193280.00000 -999.25000    0.06000   73.51050   15.35430    0.15160 -999.25000    2.50500    1.85600    1.94200
 1193340.00000 -999.25000    0.05200   71.70780   14.70870    0.14910 -999.25000    2.51750    1.97100    2.14330
 1193400.00000 -999.25000    0.04400   70.21670   14.06300    0.14670 -999.25000    2.53000    2.08600    2.34470
 1193460.00000 -999.25000    0.05870   69.21680   13.17230    0.14430 -999.25000    2.53000    2.20100    2.54600
 1193520.00000 -999.25000    0.07330   68.36920   12.28170    0.14190 -999.25000    2.53000    2.31600    2.54600
 1193580.00000 -999.25000    0.08800   68.50870   11.39100    0.13950 -999.25000    2.53000    2.43100    2.54600
 1193640.00000 -999.25000    0.08930   68.51820   12.05900    0.14050 -999.25000    2.53000    2.54600    2.54600
 1193700.00000 -999.25000    0.09070   69.75780   12.72700    0.14150 -999.25000    2.53000    2.62630    2.62630
 1193760.00000 -999.25000    0.09200   72.16350   13.39500    0.14250 -999.25000    2.53000    2.70670    2.70670
 1193820.00000 -999.25000    0.08600   71.53280   14.06300    0.11910 -999.25000    2.55500    2.78700    2.78700
 1193880.00000 -999.25000    0.08000   68.70920   13.17230    0.09560 -999.25000    2.58000    2.96010    3.13630
 1193940.00000 -999.25000    0.07400   65.46150   12.28170    0.07220 -999.25000    2.60500    3.13330    3.48550
 1194000.00000 -999.25000    0.06800   61.54250   11.39100    0.07500 -999.25000    2.63000    3.30640    3.83470
 1194060.00000 -999.25000    0.05600   60.92160   12.28170    0.07790 -999.25000    2.61330    3.47960    4.18400
 1194120.00000 -999.25000    0.04400   62.86250   13.17230    0.08070 -999.25000    2.59670    3.65270    4.12230
 1194180.00000 -999.25000    0.03200   66.06380   14.06300    0.08400 -999.25000    2.58000    3.82590    4.06070
 1194240.00000 -999.25000    0.03730   68.12330   14.30130    0.08730 -999.25000    2.58330    3.99900    3.99900
 1194300.00000 -999.25000    0.04270   68.08230   14.53950    0.09070 -999.25000    2.58670    4.01960    3.83030
 1194360.00000 -999.25000    0.04800   67.55750   14.77780    0.09400 -999.25000    2.59000    4.04010    3.66170
 1194420.00000 -999.25000    0.05200   69.02860   15.01600    0.09450 -999.25000    2.57670    4.06070    3.49300
 1194480.00000 -999.25000    0.05600   70.24790   14.69830    0.09490 -999.25000    2.56330    4.08120    3.64030
 1194540.00000 -999.25000    0.06000   68.64700   14.38070    0.09540 -999.25000    2.55000    4.10180    3.78770
 1194600.00000 -999.25000    0.05600   66.15900   14.06300    0.08960 -999.25000    2.57670    4.12230    3.93500
 1194660.00000 -999.25000    0.05200   63.94240   13.45870    0.08380 -999.25000    2.60330    4.14290    4.08230
 1194720.00000 -999.25000    0.04800   60.78790   12.85430    0.07800 -999.25000    2.63000    4.16340    4.22970
 1194780.00000 -999.25000    0.04400   60.98850   12.25000    0.08050 -999.25000    2.62500    4.18400    4.37700
 1194840.00000 -999.25000    0.04930   60.61230   12.25000    0.08310 -999.25000    2.62000    4.12230    4.25100
 1194900.00000 -999.25000    0.05470   58.21900   12.25000    0.08570 -999.25000    2.61500    4.06070    4.12500
 1194960.00000 -999.25000    0.06000   59.96470   12.25000    0.08340 -999.25000    2.61000    3.99900    3.99900
 1195020.00000 -999.25000    0.06130   63.77850   12.70320    0.08110 -999.25000    2.61670    4.21130    4.24760
 1195080.00000 -999.25000    0.06270   65.31400   13.15650    0.07890 -999.25000    2.62330    4.42360    4.49610
 1195140.00000 -999.25000    0.06400   66.28930   13.60970    0.07660 -999.25000    2.63000    4.63590    4.74470
 1195200.00000 -999.25000    0.06800   66.35830   14.06300    0.07430 -999.25000    2.63330    4.84810    4.99330
 1195260.00000 -999.25000    0.07200   63.25720   13.45870    0.07200 -999.25000    2.63670    5.06040    5.24190
 1195320.00000 -999.25000    0.07600   61.82670   12.85430    0.06980 -999.25000    2.64000    5.27270    5.49040
 1195380.00000 -999.25000    0.06670   63.27710   12.25000    0.06750 -999.25000    2.62670    5.48500    5.73900
 1195440.00000 -999.25000    0.05730   64.00210   12.85430    0.06520 -999.25000    2.61330    5.56970    5.73900
 1195500.00000 -999.25000    0.04800   61.22640   13.45870    0.06300 -999.25000    2.60000    5.65430    5.73900
 1195560.00000 -999.25000    0.05200   60.24370   14.06300    0.06070 -999.25000    2.62670    5.73900    5.73900
 1195620.00000 -999.25000    0.05600   61.20770   13.75570    0.05840 -999.25000    2.65330    5.81470    5.81470
 1195680.00000 -999.25000    0.06000   60.76740   13.44830    0.05610 -999.25000    2.68000    5.89050    5.89050
 1195740.00000 -999.25000    0.06180   60.74420   13.14100    0.05390 -999.25000    2.68000    5.96620    5.96620
 1195800.00000 -999.25000    0.06350   59.23970   13.14100    0.05160 -999.25000    2.68000    6.04190    6.04190
 1195860.00000 -999.25000    0.06530   59.06850   13.14100    0.04930 -999.25000    2.68000    6.11770    6.11770
 1195920.00000 -999.25000    0.06700   62.32380   13.14100    0.05090 -999.25000    2.68000    6.19340    6.19340
 1195980.00000 -999.25000    0.06880   60.40080   13.14100    0.05250 -999.25000    2.68000    6.26910    6.26910
 1196040.00000 -999.25000    0.07060   54.66840   11.07050    0.05400 -999.25000    2.68000    6.34490    6.34490
 1196100.00000 -999.25000    0.07230   51.07980    9.00000    0.05560 -999.25000    2.68000    6.42060    6.42060
 1196160.00000 -999.25000    0.07410   52.91520    9.81250    0.05720 -999.25000    2.67330    6.49630    6.49630
 1196220.00000 -999.25000    0.07580   58.15100   10.62500    0.05880 -999.25000    2.66670    6.57210    6.57210
 1196280.00000 -999.25000    0.07760   58.65310   11.43750    0.06030 -999.25000    2.66000    6.64780    6.64780
 1196340.00000 -999.25000    0.07940   57.67480   12.25000    0.06190 -999.25000    2.64170    6.72350    6.72350
 1196400.00000 -999.25000    0.08110   57.33180   12.54700    0.06350 -999.25000    2.62330    6.79930    6.79930
 1196460.00000 -999.25000    0.08290   55.27430   12.84400    0.06510 -999.25000    2.60500    6.87500    6.87500
 1196520.00000 -999.25000    0.08460   54.16330   13.14100    0.06660 -999.25000    2.58670    6.58470    6.49630
 1196580.00000 -999.25000    0.08640   54.16330   13.14100    0.06420 -999.25000    2.56830    6.29430    6.11770
 1196640.00000 -999.25000    0.08820   54.73900   13.14100    0.06180 -999.25000    2.55000    6.00400    5.73900
 1196700.00000 -999.25000    0.08990   55.99020   13.14100    0.05930 -999.25000    2.55670    5.83100    5.73900
