~Version ---------------------------------------------------
VERS.   2.0 : CWLS log ASCII Standard -VERSION 2.0
WRAP.    NO : One line per depth step
DLM . SPACE : Column Data Section Delimiter
~Well ------------------------------------------------------
STRT.0.1 in             165840.0 : START DEPTH
STOP.0.1 in            1492980.0 : STOP DEPTH
STEP.0.1 in                 60.0 : STEP
NULL.                    -999.25 : NULL VALUE
COMP.                            : COMPANY
WELL.                   15/9-F-5 : WELL
FLD .                      VOLVE : FIELD
LOC .                            : LOCATION
PROV.                            : PROVINCE
CNTY.                            : COUNTY
STAT.                            : STATE
CTRY.                            : COUNTRY
SRVC.    CROCKER DATA PROCESSING : SERVICE COMPANY
DATE. 2009-02-18 14:44:38.068000 : DATE
UWI .                            : UNIQUE WELL ID
API .                            : API NUMBER
~Curve Information -----------------------------------------
DEPTH.0.1 in       : Measured Depth
CALI .inches       : CALI:UNKNOWN:rC:NONE:v1
DRHO .g/cm3        : DRHO:UNKNOWN:rC:NONE:v1
DT   .us/ft        : DT:UNKNOWN:rC:NONE:v1
GR   .API          : GR:UNKNOWN:rC:NONE:v1
NPHI .v/v_decimal  : NPHI:UNKNOWN:rC:NONE:v1
RD   .UNKNOWN      : RD:UNKNOWN:rC:NONE:v1
RHOB .g/cm3        : RHOB:UNKNOWN:rC:NONE:v1
RS   .UNKNOWN      : RS:UNKNOWN:rC:NONE:v1
RT   .ohm.m        : RT:UNKNOWN:rC:NONE:v1
~Params ----------------------------------------------------
PROD   .                        PETROLOG : 
PROG   .            ['PETROLOG-TO-DLIS'] : 
RUN    .                              [] : 
DESCENT.                              [] : 
VERSION.                           10.00 : 
LINEAGE.      Python-converted from DLIS : 
ORFILE . WLC_PETRO_COMPUTED_INPUT_1.DLIS : 
~Other -----------------------------------------------------
~ASCII -----------------------------------------------------
# ...
 1290480.00000    8.76000    0.09000   77.02710   57.05520    0.14550    2.87000    2.55010    2.87000    2.76050
 1290540.00000    8.72000    0.09990   77.54760   60.10030    0.14560    2.71000    2.55000    2.89060    2.70120
 1290600.00000    8.69950    0.09000   77.47590   61.10150    0.14390    2.57540    2.55030    2.94720    2.80980
 1290660.00000    8.68050    0.09000   77.39510   62.68270    0.14430    2.39430    2.55980    2.84250    2.80020
 1290720.00000    8.70000    0.09000   77.77380   63.50370    0.14210    2.12000    2.56000    2.34400    2.54210
 1290780.00000    8.71000    0.11020   78.29130   67.87060    0.17900    1.91000    2.57010    1.93500    2.19080
 1290840.00000    8.72070    0.13040   81.19720   70.47620    0.25800    2.11270    2.58020    1.31460    1.04750
 1290900.00000    8.74930    0.14950   85.80560   72.85750    0.24170    1.80780    2.58980    1.08600    0.94270
 1290960.00000    8.70000    0.15000   89.16940   77.13460    0.29690    1.47000    2.54050    1.26800    1.51380
 1291020.00000    8.70000    0.18010   93.22670   84.11420    0.37440    1.60000    2.53990    1.21870    1.28780
 1291080.00000    8.76900    0.19000   95.29160   82.83340    0.24390    1.89550    2.52120    0.99020    0.88300
 1291140.00000    8.72140    0.19000   95.93610   73.47030    0.22550    1.67630    2.57840    1.47600    1.50210
 1291200.00000    8.62000    0.14070   95.38020   58.18290    0.24140    1.83000    2.58000    1.82550    1.82590
 1291260.00000    8.61000    0.12000   87.49580   48.57000    0.20510    1.99000    2.62000    2.03000    2.14000
 1291320.00000    8.61000    0.08970   81.64570   44.83810    0.20030    2.18460    2.61020    2.49820    2.40370
 1291380.00000    8.61000    0.07060   78.38630   40.92330    0.17540    2.43210    2.61970    2.94590    2.60370
 1291440.00000    8.55100    0.05030   75.29100   37.51340    0.15790    2.39080    2.63970    3.19620    3.03310
 1291500.00000    8.58000    0.04000   72.03550   35.99000    0.14730    2.45000    2.64000    3.33000    3.22000
 1291560.00000    8.61970    0.03020   70.10480   41.00210    0.16350    2.43060    2.62970    3.06070    3.14150
 1291620.00000    8.60090    0.04090   73.23220   51.33810    0.20140    2.46150    2.61030    2.47200    2.60440
 1291680.00000    8.62950    0.06950   78.93890   63.02530    0.23680    2.19510    2.61980    1.90050    2.10910
 1291740.00000    8.61000    0.09000   86.43030   73.12000    0.30340    2.34000    2.62000    1.42000    1.34000
 1291800.00000    8.59000    0.08990   92.29290   76.36350    0.31710    2.02940    2.61990    1.28080    1.32080
 1291860.00000    8.59270    0.08000   95.64040   74.21820    0.36610    1.99110    2.61000    1.34490    1.38360
 1291920.00000    8.68800    0.08000   92.61390   67.92220    0.36630    2.02920    2.61000    1.51640    1.50740
 1291980.00000    8.63000    0.08990   86.24350   58.33070    0.36930    2.03000    2.61990    1.45040    1.47020
 1292040.00000    8.61000    0.06980   82.08670   42.27930    0.36840    2.03000    2.62020    1.46000    1.46000
 1292100.00000    8.53950    0.04980   77.21200   28.18030    0.33300    2.04000    2.64000    1.46000    1.46000
 1292160.00000    8.52050    0.04020   70.28930   23.61780    0.57380    2.04000    2.64000    1.46000    1.46000
 1292220.00000    8.52000    0.04990   67.77430   28.62870    0.59730    2.04000    2.63010    1.46000    1.46000
 1292280.00000    8.54000    0.05010   70.49450   33.18110    0.15450    2.02000    2.61000    1.46000    1.46000
 1292340.00000    8.56000    0.06000   74.06700   37.09180    0.15700    2.02760    2.61020    1.47710    1.47710
 1292400.00000    8.56000    0.06000   76.65160   39.28250    0.15670    2.35160    2.61980    2.20100    2.20100
 1292460.00000    8.55000    0.06990   78.31350   43.27750    0.16990    2.38000    2.63980    2.22990    2.18040
 1292520.00000    8.54000    0.04990   79.25800   45.49010    0.18070    2.40000    2.62980    2.16960    2.08970
 1292580.00000    8.54000    0.03000   80.95530   49.37360    0.16520    2.36650    2.59960    2.09940    2.03620
 1292640.00000    8.54000    0.03000   82.87190   56.21260    0.17080    2.20470    2.58050    2.07080    2.33150
 1292700.00000    8.54000    0.02010   83.85530   62.09320    0.21780    2.00000    2.54050    1.97130    2.40910
 1292760.00000    8.54000    0.01000   83.27900   60.42000    0.23390    2.34000    2.56000    1.54000    1.45000
 1292820.00000    8.54000    0.01000   79.32140   51.31990    0.23730    2.21810    2.56980    1.61930    1.55030
 1292880.00000    8.54000    0.01000   74.09800   43.14740    0.20390    2.11320    2.56030    2.12410    2.11230
 1292940.00000    8.55970    0.00020   72.72050   39.59360    0.18910    2.17890    2.55020    2.31710    2.31700
 1293000.00000    8.55000    0.04000   73.81020   42.33000    0.17170    2.32000    2.56000    2.40000    2.29000
 1293060.00000    8.57000    0.04020   76.59540   43.55510    0.16310    2.35140    2.60000    2.37940    2.34940
 1293120.00000    8.56970    0.05000   77.77890   41.44600    0.16570    2.44060    2.60000    2.34030    2.31090
 1293180.00000    8.56020    0.05000   76.59410   42.58900    0.16890    2.45970    2.60000    2.34980    2.33950
 1293240.00000    8.57000    0.05000   75.64280   40.50000    0.16640    2.45000    2.60000    2.35000    2.32000
 1293300.00000    8.55000    0.04990   75.10540   40.80080    0.17030    2.48000    2.59000    2.30030    2.29000
 1293360.00000    8.51970    0.03970   74.54500   39.47650    0.16360    2.49110    2.59030    2.32080    2.29170
 1293420.00000    8.51020    0.03020   74.53760   42.81980    0.16930    2.52920    2.59980    2.34940    2.34880
 1293480.00000    8.52000    0.03000   74.73100   43.05910    0.17670    2.55000    2.60000    2.35990    2.36990
 1293540.00000    8.51000    0.03000   71.21980   38.57000    0.16200    2.54000    2.60010    2.37050    2.35090
 1293600.00000    8.54050    0.03020   68.45230   32.02400    0.14760    2.57050    2.61000    2.42130    2.43150
 1293660.00000    8.55960    0.03980   67.73830   29.89040    0.15210    2.58960    2.61000    2.46890    2.48870
 1293720.00000    8.54000    0.04990   68.28990   27.21120    0.13240    2.68000    2.61000    2.59900    2.58920
 1293780.00000    8.52000    0.05010   69.47860   26.23950    0.12430    2.69000    2.61010    2.64030    2.62040
 1293840.00000    8.49980    0.06000   66.98790   23.69960    0.13210    2.71110    2.62020    2.68270    2.67160
 1293900.00000    8.49020    0.06000   67.32040   23.68050    0.13720    2.75870    2.62980    2.79700    2.73830
 1293960.00000    8.53000    0.06000   69.82990   24.69900    0.12550    2.79000    2.63990    2.96820    2.83890
 1294020.00000    8.53000    0.03990   70.56020   27.52780    0.10810    2.78000    2.61990    3.03980    2.95020
 1294080.00000    8.51100    0.03040   69.66690   32.87280    0.12290    2.75980    2.60000    3.00940    2.98980
 1294140.00000    8.55860    0.04940   71.07050   40.14990    0.14510    2.75030    2.60000    2.98080    2.98030
 1294200.00000    8.61000    0.05990   73.45350   48.40130    0.15930    2.78000    2.59010    2.93070    2.95040
 1294260.00000    8.64000    0.07000   75.20500   52.83000    0.16140    2.76000    2.60000    2.80000    2.86000
 1294320.00000    8.60000    0.04980   75.33730   53.04110    0.17600    2.83020    2.59020    2.63860    2.67910
 1294380.00000    8.60000    0.04030   75.52740   50.92660    0.18350    2.83970    2.59970    2.56240    2.63150
 1294440.00000    8.60000    0.04000   77.42530   47.59310    0.18620    2.79080    2.60000    2.46160    2.51190
 1294500.00000    8.59000    0.04000   78.18470   45.20000    0.19030    2.71000    2.60000    2.45000    2.48000
 1294560.00000    8.57920    0.05000   77.18040   45.03060    0.18110    2.62880    2.60000    2.35920    2.43900
 1294620.00000    8.53120    0.05000   77.41850   45.17590    0.18230    2.55850    2.60000    2.30760    2.37490
 1294680.00000    8.56930    0.05000   79.40810   48.53820    0.18610    2.51090    2.60000    2.23140    2.21300
