~Version ---------------------------------------------------
VERS.   2.0 : CWLS log ASCII Standard -VERSION 2.0
WRAP.    NO : One line per depth step
DLM . SPACE : Column Data Section Delimiter
~Well ------------------------------------------------------
STRT.0.1 in             165840.0 : START DEPTH
STOP.0.1 in            1492980.0 : STOP DEPTH
STEP.0.1 in                 60.0 : STEP
NULL.                    -999.25 : NULL VALUE
COMP.                            : COMPANY
WELL.                   15/9-F-5 : WELL
FLD .                      VOLVE : FIELD
LOC .                            : LOCATION
PROV.                            : PROVINCE
CNTY.                            : COUNTY
STAT.                            : STATE
CTRY.                            : COUNTRY
SRVC.    CROCKER DATA PROCESSING : SERVICE COMPANY
DATE. 2009-02-18 14:44:38.068000 : DATE
UWI .                            : UNIQUE WELL ID
API .                            : API NUMBER
~Curve Information -----------------------------------------
DEPTH.0.1 in       : Measured Depth
CALI .inches       : CALI:UNKNOWN:rC:NONE:v1
DRHO .g/cm3        : DRHO:UNKNOWN:rC:NONE:v1
DT   .us/ft        : DT:UNKNOWN:rC:NONE:v1
GR   .API          : GR:UNKNOWN:rC:NONE:v1
NPHI .v/v_decimal  : NPHI:UNKNOWN:rC:NONE:v1
RD   .UNKNOWN      : RD:UNKNOWN:rC:NONE:v1
RHOB .g/cm3        : RHOB:UNKNOWN:rC:NONE:v1
RS   .UNKNOWN      : RS:UNKNOWN:rC:NONE:v1
RT   .ohm.m        : RT:UNKNOWN:rC:NONE:v1
~Params ----------------------------------------------------
PROD   .                        PETROLOG : 
PROG   .            ['PETROLOG-TO-DLIS'] : 
RUN    .                              [] : 
DESCENT.                              [] : 
VERSION.                           10.00 : 
LINEAGE.      Python-converted from DLIS : 
ORFILE . WLC_PETRO_COMPUTED_INPUT_1.DLIS : 
~Other -----------------------------------------------------
~ASCII -----------------------------------------------------
# ...
 1316040.00000    8.46000    0.07000   95.67000  149.29440    0.28990    2.23000    2.52010    2.04680    2.20580
 1316100.00000    8.46050    0.07020   97.37810  157.11200    0.29090    2.08950    2.52980    1.74700    1.81400
 1316160.00000    8.47950    0.07980   97.79550  156.80721    0.30200    2.07050    2.52020    1.63270    1.58540
 1316220.00000    8.47000    0.08000  101.55700  154.13150    0.31360    1.91000    2.51010    1.58040    1.58000
 1316280.00000    8.47000    0.10010  104.55960  152.58090    0.31950    1.81000    2.51020    1.66950    1.73910
 1316340.00000    8.47020    0.11000  102.43800  148.81340    0.30300    1.83430    2.53050    1.60730    1.62550
 1316400.00000    8.47980    0.11000  101.27960  142.18401    0.27890    2.01540    2.54950    1.49300    1.43500
 1316460.00000    8.46000    0.08030  102.42580  131.66161    0.26670    1.72000    2.53020    1.56910    1.66740
 1316520.00000    8.44000    0.06990   99.77340  128.15990    0.28810    1.79000    2.51990    1.52910    1.54890
 1316580.00000    8.47060    0.06000   98.08300  130.20419    0.31530    1.89650    2.50000    1.37480    1.34860
 1316640.00000    8.49920    0.06000   97.99290  139.45300    0.30130    1.72500    2.50000    1.60340    1.75820
 1316700.00000    8.50000    0.06000   97.65850  146.14320    0.28650    1.91000    2.50000    1.59030    1.66150
 1316760.00000    8.49000    0.04000  100.72620  148.39999    0.33180    2.00000    2.49000    1.52000    1.58000
 1316820.00000    8.48960    0.05000  103.26310  146.44000    0.32070    1.83020    2.49000    1.60930    1.72860
 1316880.00000    8.47060    0.05000  102.06070  142.63000    0.30170    1.83970    2.49000    1.57120    1.65240
 1316940.00000    8.47980    0.05980  100.47340  142.22459    0.31290    1.74160    2.49980    1.52080    1.62050
 1317000.00000    8.45000    0.07000  100.41310  141.98000    0.29570    1.76000    2.50000    1.52000    1.60000
 1317060.00000    8.48980    0.07000   98.42330  139.11880    0.29320    1.81880    2.49970    1.44210    1.44450
 1317120.00000    8.48090    0.07000   98.23810  135.94659    0.29670    1.74300    2.47970    1.56760    1.71550
 1317180.00000    8.50950    0.07000  100.25200  135.20370    0.31390    1.83830    2.47020    1.49140    1.57260
 1317240.00000    8.53000    0.06000  104.30930  134.12000    0.31630    1.69000    2.45000    1.50000    1.54000
 1317300.00000    8.51000    0.06000  105.47700  135.50560    0.31530    1.62000    2.44000    1.48880    1.54870
 1317360.00000    8.53950    0.06000   99.34270  134.44411    0.33860    1.68890    2.44000    1.40000    1.45000
 1317420.00000    8.52040    0.06000   94.35670  134.58701    0.31870    1.65080    2.44000    1.40000    1.45000
 1317480.00000    8.50000    0.05010   93.78210  130.92960    0.30090    1.69000    2.45990    1.35030    1.33060
 1317540.00000    8.48000    0.04000   98.12920  125.08300    0.31510    1.54000    2.47020    1.38960    1.42950
 1317600.00000    8.48030    0.04020  101.84630  124.38530    0.31220    1.61000    2.49050    1.34870    1.37830
 1317660.00000    8.48980    0.04980  103.68590  122.68030    0.32200    1.61000    2.50960    1.30110    1.31160
 1317720.00000    8.47000    0.04010  101.80380  125.50690    0.30100    1.53000    2.50010    1.34960    1.40920
 1317780.00000    8.44000    0.04000   99.29210  127.63170    0.29960    1.58000    2.49000    1.31060    1.30060
 1317840.00000    8.44980    0.04000   96.91620  132.83400    0.31700    1.59020    2.49000    1.37980    1.37950
 1317900.00000    8.44020    0.04000   96.88630  134.27220    0.31090    1.59980    2.49000    1.37020    1.36050
 1317960.00000    8.47000    0.03010   99.55280  135.77420    0.31030    1.62000    2.47020    1.46890    1.48860
 1318020.00000    8.46000    0.02010  100.37750  134.42300    0.29310    1.60000    2.46010    1.45020    1.48010
 1318080.00000    8.47960    0.03020   98.24030  134.97501    0.32250    1.65820    2.48000    1.48060    1.49100
 1318140.00000    8.46060    0.03970   96.75860  134.26060    0.31920    1.57250    2.48000    1.50920    1.53860
 1318200.00000    8.49000    0.04990  100.79890  135.12801    0.32350    1.61000    2.48000    1.40150    1.40190
 1318260.00000    8.49000    0.05000  101.61820  138.12000    0.32150    1.64000    2.46000    1.34000    1.37000
 1318320.00000    8.48020    0.06000  103.02310  144.31441    0.34210    1.60910    2.47020    1.37020    1.42980
 1318380.00000    8.48970    0.06000  104.29300  140.19960    0.32210    1.56150    2.47970    1.37970    1.42030
 1318440.00000    8.50970    0.06980  102.89290  136.38980    0.28640    1.67800    2.48980    1.28160    1.22320
 1318500.00000    8.51000    0.07000  102.48970  128.16000    0.29480    1.61000    2.49000    1.36000    1.40000
 1318560.00000    8.49000    0.07020   99.07330  130.93961    0.30800    1.51120    2.49020    1.41870    1.52700
 1318620.00000    8.48970    0.08000   96.98010  131.48170    0.30450    1.58390    2.50000    1.34000    1.33910
 1318680.00000    8.48020    0.08000  100.88110  129.94820    0.34120    1.70780    2.50000    1.34000    1.31050
 1318740.00000    8.51000    0.07000  101.45820  132.39000    0.32980    1.66000    2.49000    1.38000    1.36000
 1318800.00000    8.47000    0.07010   99.69360  136.70239    0.30610    1.66000    2.48010    1.47000    1.50040
 1318860.00000    8.45970    0.08000   97.27290  139.82620    0.31970    1.74830    2.49000    1.47330    1.53410
 1318920.00000    8.45020    0.08000   99.08820  139.35001    0.30450    1.69120    2.49000    1.58760    1.67700
 1318980.00000    8.48000    0.08000   98.51690  136.07750    0.32800    1.80000    2.49990    1.55020    1.52090
 1319040.00000    8.48000    0.08020   95.43260  134.75980    0.30470    1.72000    2.49020    1.68020    1.73970
 1319100.00000    8.50900    0.10050   94.28880  132.80130    0.32130    1.78280    2.51050    1.69970    1.70950
 1319160.00000    8.47090    0.11950   95.36170  129.41991    0.29810    1.88760    2.52960    1.69020    1.69040
 1319220.00000    8.46000    0.12990   95.87380  127.68340    0.28230    1.81000    2.53000    1.83880    1.95780
 1319280.00000    8.47000    0.11990   97.04560  127.92180    0.28520    1.77000    2.50980    1.77860    1.90800
 1319340.00000    8.49070    0.10980   96.62450  130.70309    0.29800    1.80850    2.48960    1.59800    1.65710
 1319400.00000    8.51920    0.10020   97.43970  133.79880    0.30530    1.74180    2.47050    1.51220    1.53320
 1319460.00000    8.51000    0.10000   98.46760  136.57100    0.31080    1.72000    2.47990    1.44070    1.43110
 1319520.00000    8.49000    0.10000   99.05270  137.56110    0.30080    1.71000    2.49000    1.44970    1.48980
 1319580.00000    8.47000    0.10000   99.92560  137.76920    0.29570    1.68900    2.49000    1.38960    1.44960
 1319640.00000    8.47000    0.10000  100.43400  138.20740    0.30350    1.64130    2.49000    1.37060    1.43050
 1319700.00000    8.47000    0.10000  102.05750  139.53230    0.33480    1.71000    2.47030    1.32070    1.34120
 1319760.00000    8.47000    0.10000  102.06480  140.50999    0.33090    1.61000    2.46000    1.35000    1.36000
 1319820.00000    8.47000    0.08980  102.83900  139.89729    0.32450    1.62020    2.46020    1.38100    1.40190
 1319880.00000    8.47000    0.08030  103.98200  137.03030    0.32180    1.62970    2.46970    1.43820    1.50670
 1319940.00000    8.47980    0.07020  102.36930  134.54890    0.33470    1.69890    2.47980    1.40060    1.40180
 1320000.00000    8.51000    0.07000  101.04830  132.53999    0.35080    1.78000    2.49000    1.42000    1.41000
 1320060.00000    8.47000    0.06980  101.59010  129.40630    0.30370    1.69030    2.50000    1.46080    1.46160
 1320120.00000    8.46970    0.06000   98.18580  130.36951    0.29000    1.70970    2.50030    1.51060    1.56180
 1320180.00000    8.46020    0.06000   96.82830  129.08360    0.29150    1.70020    2.50980    1.52960    1.61900
 1320240.00000    8.51000    0.06000   97.76240  132.87000    0.29640    1.83000    2.51000    1.51000    1.51000
