~Version ---------------------------------------------------
VERS.   2.0 : CWLS log ASCII Standard -VERSION 2.0
WRAP.    NO : One line per depth step
DLM . SPACE : Column Data Section Delimiter
~Well ------------------------------------------------------
STRT.0.1 in             165840.0 : START DEPTH
STOP.0.1 in            1492980.0 : STOP DEPTH
STEP.0.1 in                 60.0 : STEP
NULL.                    -999.25 : NULL VALUE
COMP.                            : COMPANY
WELL.                   15/9-F-5 : WELL
FLD .                      VOLVE : FIELD
LOC .                            : LOCATION
PROV.                            : PROVINCE
CNTY.                            : COUNTY
STAT.                            : STATE
CTRY.                            : COUNTRY
SRVC.    CROCKER DATA PROCESSING : SERVICE COMPANY
DATE. 2009-02-18 14:44:38.068000 : DATE
UWI .                            : UNIQUE WELL ID
API .                            : API NUMBER
~Curve Information -----------------------------------------
DEPTH.0.1 in       : Measured Depth
CALI .inches       : CALI:UNKNOWN:rC:NONE:v1
DRHO .g/cm3        : DRHO:UNKNOWN:rC:NONE:v1
DT   .us/ft        : DT:UNKNOWN:rC:NONE:v1
GR   .API          : GR:UNKNOWN:rC:NONE:v1
NPHI .v/v_decimal  : NPHI:UNKNOWN:rC:NONE:v1
RD   .UNKNOWN      : RD:UNKNOWN:rC:NONE:v1
RHOB .g/cm3        : RHOB:UNKNOWN:rC:NONE:v1
RS   .UNKNOWN      : RS:UNKNOWN:rC:NONE:v1
RT   .ohm.m        : RT:UNKNOWN:rC:NONE:v1
~Params ----------------------------------------------------
PROD   .                        PETROLOG : 
PROG   .            ['PETROLOG-TO-DLIS'] : 
RUN    .                              [] : 
DESCENT.                              [] : 
VERSION.                           10.00 : 
LINEAGE.      Python-converted from DLIS : 
ORFILE . WLC_PETRO_COMPUTED_INPUT_1.DLIS : 
~Other -----------------------------------------------------
~ASCII -----------------------------------------------------
# ...
 1141380.00000 -999.25000    0.52000 -999.25000   16.46800    0.41510 -999.25000    1.86000    1.55000    1.62100
 1141440.00000 -999.25000    0.52000 -999.25000   15.16400    0.41490 -999.25000    1.76000    1.48100    1.55000
 1141500.00000 -999.25000    0.52000 -999.25000   11.46400    0.41470 -999.25000    1.66000    1.41600    1.41600
 1141560.00000 -999.25000    0.52000 -999.25000    9.17600    0.41440 -999.25000    2.20000    1.35300    1.35300
 1141620.00000 -999.25000    0.52000 -999.25000   11.46400    0.41420 -999.25000    1.67000    1.35300    1.41600
 1141680.00000 -999.25000    0.52000 -999.25000   15.16400    0.41400 -999.25000    1.68000    1.41600    1.55000
 1141740.00000 -999.25000    0.52000 -999.25000   20.59700    0.41370 -999.25000    1.76000    1.55000    1.69600
 1141800.00000 -999.25000    0.52000 -999.25000    9.77000    0.41350 -999.25000    1.75000    1.77400    1.85600
 1141860.00000 -999.25000    0.52000 -999.25000   13.14000    0.41330 -999.25000    2.33000    1.77400    1.94200
 1141920.00000 -999.25000    0.52000 -999.25000   13.14000    0.41300 -999.25000    1.88000    2.32600    2.54600
 1141980.00000 -999.25000    0.52000 -999.25000   13.14000    0.41280 -999.25000    1.93000    3.33800    3.65400
 1142040.00000 -999.25000    0.52000 -999.25000   13.14000    0.41260 -999.25000    1.93000    4.79100    5.24300
 1142100.00000 -999.25000    0.51600 -999.25000   12.25000    0.41240 -999.25000    1.86000    6.28100    6.28100
 1142160.00000 -999.25000    0.51600 -999.25000   11.39000    0.41210 -999.25000    2.07000    8.23500    7.87200
 1142220.00000 -999.25000    0.51600 -999.25000    9.77000    0.30660 -999.25000    2.28000    9.86500    9.01400
 1142280.00000 -999.25000    0.51600 -999.25000    9.77000    0.28150 -999.25000    2.15000   11.29600   10.32100
 1142340.00000 -999.25000    0.51600 -999.25000    8.27000    0.26790 -999.25000    2.19000   11.29600   10.79800
 1142400.00000 -999.25000    0.51600 -999.25000    6.89000    0.24760 -999.25000    2.01000   10.79800   10.32100
 1142460.00000 -999.25000    0.51600 -999.25000    7.94500    0.22840 -999.25000    2.36000    9.01400   10.32100
 1142520.00000 -999.25000    0.51600 -999.25000    9.00000    0.25550 -999.25000    2.29000    8.61600    8.23500
 1142580.00000 -999.25000    0.51600 -999.25000    9.76600    0.29040 -999.25000    2.09000    9.01400    8.61600
 1142640.00000 -999.25000    0.51600 -999.25000    9.00000    0.28270 -999.25000    1.97000    8.61600    8.61600
 1142700.00000 -999.25000    0.51600 -999.25000    9.76600    0.28430 -999.25000    1.88000    8.23500    8.61600
 1142760.00000 -999.25000    0.51600 -999.25000   11.39100    0.28730 -999.25000    2.12000    8.61600    9.01400
 1142820.00000 -999.25000    0.51600 -999.25000    9.00000    0.28670 -999.25000    1.92000    9.01400    8.61600
 1142880.00000 -999.25000    0.51600 -999.25000    9.00000    0.24550 -999.25000    2.05000    7.87200    7.52400
 1142940.00000 -999.25000    0.51600 -999.25000    8.26600    0.22890 -999.25000    2.02000    5.73900    5.73900
 1143000.00000 -999.25000    0.51600 -999.25000    9.76600    0.21940 -999.25000    2.16000    4.18400    4.18400
 1143060.00000 -999.25000    0.51600 -999.25000    8.26600    0.23910 -999.25000    2.39000    3.33800    3.19100
 1143120.00000 -999.25000    0.51600 -999.25000    9.00000    0.28890 -999.25000    2.01000    2.66400    2.54600
 1143180.00000 -999.25000    0.51600 -999.25000    6.89100    0.35490 -999.25000    2.10000    2.03200    2.03200
 1143240.00000 -999.25000    0.51600 -999.25000    8.26600    0.37070 -999.25000    2.01000    1.85600    1.94200
 1143300.00000 -999.25000    0.51600 -999.25000    9.76600    0.38110 -999.25000    1.90000    1.77400    1.85600
 1143360.00000 -999.25000    0.51600 -999.25000   12.25000    0.38590 -999.25000    1.93000    1.77400    1.85600
 1143420.00000 -999.25000    0.51600 -999.25000    9.76600    0.33080 -999.25000    2.32000    1.62100    1.69600
 1143480.00000 -999.25000    0.51600 -999.25000    9.76600    0.36990 -999.25000    2.11000    1.48100    1.48100
 1143540.00000 -999.25000    0.51600 -999.25000   11.39100    0.40890 -999.25000    1.87000    1.41600    1.41600
 1143600.00000 -999.25000    0.51600 -999.25000   11.39100    0.41340 -999.25000    1.90000    1.41600    1.35300
 1143660.00000 -999.25000    0.51600 -999.25000   12.25000    0.36500 -999.25000    1.94000    1.35300    1.35300
 1143720.00000 -999.25000    0.51600 -999.25000    9.76600    0.39830 -999.25000    1.98000    1.35300    1.35300
 1143780.00000 -999.25000    0.51600 -999.25000   12.25000    0.39730 -999.25000    1.96000    1.35300    1.35300
 1143840.00000 -999.25000    0.51600 -999.25000   13.14100    0.39630 -999.25000    2.03000    1.29300    1.29300
 1143900.00000 -999.25000    0.51600 -999.25000   13.14100    0.40400 -999.25000    2.08000    1.23600    1.18200
 1143960.00000 -999.25000    0.51600 -999.25000   11.39100    0.38040 -999.25000    2.10000    1.23600    1.23600
 1144020.00000 -999.25000    0.51600 -999.25000   12.25000    0.39650 -999.25000    2.05000    1.29300    1.35300
 1144080.00000 -999.25000    0.51600 -999.25000    9.00000    0.39080 -999.25000    2.05000    1.41600    1.41600
 1144140.00000 -999.25000    0.51600 -999.25000    9.76600    0.41290 -999.25000    2.14000    1.41600    1.41600
 1144200.00000 -999.25000    0.51600 -999.25000   11.39100    0.40950 -999.25000    1.95000    1.35300    1.35300
 1144260.00000 -999.25000    0.51600 -999.25000   11.39100    0.41390 -999.25000    1.98000    1.29300    1.29300
 1144320.00000 -999.25000    0.51600 -999.25000    9.00000    0.41830 -999.25000    1.97000    1.23600    1.18200
 1144380.00000 -999.25000    0.51600 -999.25000    9.76600    0.43070 -999.25000    2.05000    1.18200    1.18200
 1144440.00000 -999.25000    0.51600 -999.25000   12.25000    0.42770 -999.25000    2.13000    1.18200    1.13000
 1144500.00000 -999.25000    0.52000 -999.25000    9.76600    0.42480 -999.25000    2.20000    1.18200    1.18200
 1144560.00000 -999.25000    0.52000 -999.25000    9.00000    0.38070 -999.25000    2.33000    1.41600   60.04000
 1144620.00000 -999.25000    0.52000 -999.25000    9.00000    0.41900 -999.25000    1.94000    1.48100 2425.33301
 1144680.00000 -999.25000    0.52000 -999.25000    9.00000    0.45740 -999.25000    1.98000    1.55000 4790.62500
 1144740.00000 -999.25000    0.52000 -999.25000   11.39100    0.44300 -999.25000    2.02000    1.55000 4790.62500
 1144800.00000 -999.25000    0.52000 -999.25000   12.25000    0.37130 -999.25000    2.17000    1.55000 2657.47900
 1144860.00000 -999.25000    0.52000 -999.25000   11.39100    0.29970 -999.25000    2.92000    1.55000  524.33398
 1144920.00000 -999.25000    0.52000 -999.25000    8.27000    0.23970 -999.25000    2.44500 4790.62500   65.71200
 1144980.00000 -999.25000    0.52000 -999.25000   10.26000    0.34470 -999.25000    1.97000 4790.62500   39.62200
 1145040.00000 -999.25000    0.52000 -999.25000   12.25000    0.44980 -999.25000    1.55000 4790.62500   13.53200
 1145100.00000 -999.25000    0.52000 -999.25000   13.14000    0.59970 -999.25000    1.82000 4790.62500 4790.62500
 1145160.00000 -999.25000    0.52000 -999.25000   15.02000    0.41010 -999.25000    2.09000 4790.62500 2398.90796
 1145220.00000 -999.25000    0.52000 -999.25000   13.14000    0.40570 -999.25000    2.11000 4790.62500    7.19200
 1145280.00000 -999.25000    0.51600 -999.25000   12.26500    0.40130 -999.25000    1.94000 4790.62500 4790.62500
 1145340.00000 -999.25000    0.51600 -999.25000   11.39000    0.39880 -999.25000    1.97000 4790.62500   71.92200
 1145400.00000 -999.25000    0.51600 -999.25000   12.25000    0.40080 -999.25000    2.00000 4790.62500   41.60900
 1145460.00000 -999.25000    0.51600 -999.25000   12.69500    0.40290 -999.25000    1.93000 4790.62500   11.29600
 1145520.00000 -999.25000    0.51600 -999.25000   13.14000    0.41540 -999.25000    2.01000   57.38800   65.71200
 1145580.00000 -999.25000    0.51600 -999.25000   12.25000    0.41060 -999.25000    2.09000 2424.00708 2428.16797
