~Version ---------------------------------------------------
VERS.   2.0 : CWLS log ASCII Standard -VERSION 2.0
WRAP.    NO : One line per depth step
DLM . SPACE : Column Data Section Delimiter
~Well ------------------------------------------------------
STRT.0.1 in             165840.0 : START DEPTH
STOP.0.1 in            1492980.0 : STOP DEPTH
STEP.0.1 in                 60.0 : STEP
NULL.                    -999.25 : NULL VALUE
COMP.                            : COMPANY
WELL.                   15/9-F-5 : WELL
FLD .                      VOLVE : FIELD
LOC .                            : LOCATION
PROV.                            : PROVINCE
CNTY.                            : COUNTY
STAT.                            : STATE
CTRY.                            : COUNTRY
SRVC.    CROCKER DATA PROCESSING : SERVICE COMPANY
DATE. 2009-02-18 14:44:38.068000 : DATE
UWI .                            : UNIQUE WELL ID
API .                            : API NUMBER
~Curve Information -----------------------------------------
DEPTH.0.1 in       : Measured Depth
CALI .inches       : CALI:UNKNOWN:rC:NONE:v1
DRHO .g/cm3        : DRHO:UNKNOWN:rC:NONE:v1
DT   .us/ft        : DT:UNKNOWN:rC:NONE:v1
GR   .API          : GR:UNKNOWN:rC:NONE:v1
NPHI .v/v_decimal  : NPHI:UNKNOWN:rC:NONE:v1
RD   .UNKNOWN      : RD:UNKNOWN:rC:NONE:v1
RHOB .g/cm3        : RHOB:UNKNOWN:rC:NONE:v1
RS   .UNKNOWN      : RS:UNKNOWN:rC:NONE:v1
RT   .ohm.m        : RT:UNKNOWN:rC:NONE:v1
~Params ----------------------------------------------------
PROD   .                        PETROLOG : 
PROG   .            ['PETROLOG-TO-DLIS'] : 
RUN    .                              [] : 
DESCENT.                              [] : 
VERSION.                           10.00 : 
LINEAGE.      Python-converted from DLIS : 
ORFILE . WLC_PETRO_COMPUTED_INPUT_1.DLIS : 
~Other -----------------------------------------------------
~ASCII -----------------------------------------------------
# ...
 1239360.00000 -999.25000    0.06400   70.41540   21.51600    0.10240 -999.25000    2.57000    3.19100    3.19100
 1239420.00000 -999.25000    0.05600   70.74770   23.89100    0.10030 -999.25000    2.56500    3.19100    3.19100
 1239480.00000 -999.25000    0.04800   70.89060   26.26600    0.10560 -999.25000    2.56000    3.19100    3.19100
 1239540.00000 -999.25000    0.06400   71.46890   26.69830    0.11100 -999.25000    2.57670    3.01530    2.97600
 1239600.00000 -999.25000    0.08000   71.19460   27.13070    0.11630 -999.25000    2.59330    2.83970    2.76100
 1239660.00000 -999.25000    0.09600   68.44380   27.56300    0.10820 -999.25000    2.61000    2.66400    2.54600
 1239720.00000 -999.25000    0.08400   65.92410   26.31300    0.10020 -999.25000    2.60330    2.99400    2.91530
 1239780.00000 -999.25000    0.07200   65.32470   25.06300    0.10100 -999.25000    2.59670    3.32400    3.28470
 1239840.00000 -999.25000    0.06000   65.58370   23.81300    0.10180 -999.25000    2.59000    3.65400    3.65400
 1239900.00000 -999.25000    0.06130   65.65450   22.56300    0.10260 -999.25000    2.59000    3.76900    3.76900
 1239960.00000 -999.25000    0.06270   65.67390   22.56300    0.09990 -999.25000    2.59000    3.88400    3.88400
 1240020.00000 -999.25000    0.06400   66.26620   22.56300    0.09710 -999.25000    2.59000    3.99900    3.99900
 1240080.00000 -999.25000    0.07200   67.29350   22.56300    0.09440 -999.25000    2.60000    3.94030    3.94030
 1240140.00000 -999.25000    0.08000   68.73500   22.96400    0.09500 -999.25000    2.61000    3.88170    3.88170
 1240200.00000 -999.25000    0.08800   69.81110   23.36500    0.09560 -999.25000    2.62000    3.82300    3.82300
 1240260.00000 -999.25000    0.09200   69.59770   23.76600    0.09870 -999.25000    2.62330    3.65800    3.65800
 1240320.00000 -999.25000    0.09600   69.00480   22.22430    0.10170 -999.25000    2.62670    3.49300    3.49300
 1240380.00000 -999.25000    0.10000   68.12810   20.68270    0.10480 -999.25000    2.63000    3.45870    3.44700
 1240440.00000 -999.25000    0.09600   68.03050   19.14100    0.10790 -999.25000    2.61330    3.42430    3.40100
 1240500.00000 -999.25000    0.09200   68.13990   19.51070    0.10940 -999.25000    2.59670    3.39000    3.35500
 1240560.00000 -999.25000    0.08800   68.14900   19.88030    0.10830 -999.25000    2.58000    3.33800    3.43100
 1240620.00000 -999.25000    0.08930   67.63090   20.25000    0.10370 -999.25000    2.58330    3.33800    3.44100
 1240680.00000 -999.25000    0.09070   67.21680   18.50530    0.10310 -999.25000    2.58670    3.49300    3.55700
 1240740.00000 -999.25000    0.09200   66.94140   16.76070    0.10390 -999.25000    2.59000    3.55300    3.59700
 1240800.00000 -999.25000    0.09330   66.11470   15.01600    0.09880 -999.25000    2.59330    3.49300    3.45500
 1240860.00000 -999.25000    0.09470   65.11300   15.01600    0.08920 -999.25000    2.59670    3.82500    3.87400
 1240920.00000 -999.25000    0.09600   65.22570   15.01600    0.08870 -999.25000    2.60000    3.99900    3.99900
 1240980.00000 -999.25000    0.09000   65.37780   15.01600    0.09760 -999.25000    2.60000    4.13800    4.11000
 1241040.00000 -999.25000    0.08400   65.24270   15.68270    0.08920 -999.25000    2.60000    4.32900    4.32900
 1241100.00000 -999.25000    0.11600   64.86190   16.34930    0.07580 -999.25000    2.58330    4.57900    4.47800
 1241160.00000 -999.25000    0.07600   64.15030   17.01600    0.08240 -999.25000    2.56670    4.84600    4.79300
 1241220.00000 -999.25000    0.03600   64.06000   17.01600    0.08370 -999.25000    2.55000    5.01200    5.01200
 1241280.00000 -999.25000    0.04800   64.44700   17.01600    0.08100 -999.25000    2.59000    5.01200    5.16600
 1241340.00000 -999.25000    0.05200   64.66050   17.01600    0.08610 -999.25000    2.60000    5.24300    5.24300
 1241400.00000 -999.25000    0.04400   64.58770   15.07850    0.08740 -999.25000    2.62000    5.08900    5.24300
 1241460.00000 -999.25000    0.04800   64.90960   13.14100    0.07900 -999.25000    2.63000    5.01200    5.08900
 1241520.00000 -999.25000    0.03200   65.32690   45.51070    0.08390 -999.25000    2.55000    5.08900    5.16600
 1241580.00000 -999.25000    0.05600   65.01830   77.88030    0.08770 -999.25000    2.61000    5.16600    5.16600
 1241640.00000 -999.25000    0.04800   64.13680  110.25000    0.08680 -999.25000    2.60000    4.79100    4.68500
 1241700.00000 -999.25000    0.04400   62.95900   13.14100    0.08240 -999.25000    2.58000    4.79100    4.37700
 1241760.00000 -999.25000    0.07200   62.91150   14.06300    0.08080 -999.25000    2.60000    4.79100    5.01200
 1241820.00000 -999.25000    0.08000   63.70780   13.14100    0.07830 -999.25000    2.60000    5.08900    5.12800
 1241880.00000 -999.25000    0.06000   64.36440   15.01600    0.08190 -999.25000    2.61000    5.01200    5.01200
 1241940.00000 -999.25000    0.06400   64.03110   14.06300    0.08870 -999.25000    2.61000    5.01200    5.01200
 1242000.00000 -999.25000    0.06400   62.73030   15.01600    0.08110 -999.25000    2.61000    5.01200    4.79100
 1242060.00000 -999.25000    0.04400   62.06630   13.14100    0.07880 -999.25000    2.58000    5.08900    5.01200
 1242120.00000 -999.25000    0.07200   62.25940   13.14100    0.08050 -999.25000    2.61000    5.24300    5.08900
 1242180.00000 -999.25000    0.09200   63.01820   13.14100    0.08020 -999.25000    2.62000    5.01200    5.01200
 1242240.00000 -999.25000    0.06400   63.69220   16.00000    0.08380 -999.25000    2.58000    5.01200    4.90100
 1242300.00000 -999.25000    0.05200   64.11830   12.25000    0.08020 -999.25000    2.59000    5.01200    5.01200
 1242360.00000 -999.25000    0.04800   64.50260   14.06300    0.08240 -999.25000    2.60000    4.79100    4.90100
 1242420.00000 -999.25000    0.05200   64.53790   13.14100    0.08440 -999.25000    2.59000    4.90100    4.90100
 1242480.00000 -999.25000    0.04000   64.35400   16.00000    0.09530 -999.25000    2.59000    4.57900    4.57900
 1242540.00000 -999.25000    0.06400   64.36350   13.14100    0.09460 -999.25000    2.57000    4.51200    4.68500
 1242600.00000 -999.25000    0.03200   64.23830   12.25000    0.08910 -999.25000    2.58000    4.57900    4.47800
 1242660.00000 -999.25000    0.06800   64.12350   14.06300    0.08700 -999.25000    2.62000    4.68500    4.68500
 1242720.00000 -999.25000    0.08000   63.99530   13.14100    0.08750 -999.25000    2.60000    4.57900    4.79100
 1242780.00000 -999.25000    0.06800   63.76710   14.06300    0.08780 -999.25000    2.61000    5.01200    5.01200
 1242840.00000 -999.25000    0.02400   62.93570   13.14100    0.08280 -999.25000    2.57000    5.24300    5.01200
 1242900.00000 -999.25000    0.05200   62.03420   14.06300    0.08110 -999.25000    2.61000    5.36400    5.24300
 1242960.00000 -999.25000    0.06400   61.75840   14.06300    0.07980 -999.25000    2.62000    5.48500    5.48500
 1243020.00000 -999.25000    0.04800   62.30180   13.14100    0.07990 -999.25000    2.61000    5.48500    5.73900
 1243080.00000 -999.25000    0.05200   63.54460   16.00000    0.07900 -999.25000    2.61000    5.48500    5.73900
 1243140.00000 -999.25000    0.04000   64.55980   13.14100    0.08290 -999.25000    2.58000    5.48500    5.54900
 1243200.00000 -999.25000    0.04800   65.29720   18.06300    0.09280 -999.25000    2.59000    5.48500    5.48500
 1243260.00000 -999.25000    0.06000   65.81900   22.56300    0.08950 -999.25000    2.61000    5.36400    5.36400
 1243320.00000 -999.25000    0.06000   65.35750   19.14100    0.08740 -999.25000    2.62000    5.24300    5.24300
 1243380.00000 -999.25000    0.06400   64.49860   21.39100    0.08500 -999.25000    2.61000    5.01200    5.01200
 1243440.00000 -999.25000    0.05200   64.24130   17.01600    0.07860 -999.25000    2.59000    5.24300    5.24300
 1243500.00000 -999.25000    0.04400   64.69230   21.39100    0.07160 -999.25000    2.61000    5.24300    5.24300
 1243560.00000 -999.25000    0.05200   64.97410   21.39100    0.07840 -999.25000    2.62000    5.24300    5.12800
