~Version ---------------------------------------------------
VERS.   2.0 : CWLS log ASCII Standard -VERSION 2.0
WRAP.    NO : One line per depth step
DLM . SPACE : Column Data Section Delimiter
~Well ------------------------------------------------------
STRT.0.1 in             165840.0 : START DEPTH
STOP.0.1 in            1492980.0 : STOP DEPTH
STEP.0.1 in                 60.0 : STEP
NULL.                    -999.25 : NULL VALUE
COMP.                            : COMPANY
WELL.                   15/9-F-5 : WELL
FLD .                      VOLVE : FIELD
LOC .                            : LOCATION
PROV.                            : PROVINCE
CNTY.                            : COUNTY
STAT.                            : STATE
CTRY.                            : COUNTRY
SRVC.    CROCKER DATA PROCESSING : SERVICE COMPANY
DATE. 2009-02-18 14:44:38.068000 : DATE
UWI .                            : UNIQUE WELL ID
API .                            : API NUMBER
~Curve Information -----------------------------------------
DEPTH.0.1 in       : Measured Depth
CALI .inches       : CALI:UNKNOWN:rC:NONE:v1
DRHO .g/cm3        : DRHO:UNKNOWN:rC:NONE:v1
DT   .us/ft        : DT:UNKNOWN:rC:NONE:v1
GR   .API          : GR:UNKNOWN:rC:NONE:v1
NPHI .v/v_decimal  : NPHI:UNKNOWN:rC:NONE:v1
RD   .UNKNOWN      : RD:UNKNOWN:rC:NONE:v1
RHOB .g/cm3        : RHOB:UNKNOWN:rC:NONE:v1
RS   .UNKNOWN      : RS:UNKNOWN:rC:NONE:v1
RT   .ohm.m        : RT:UNKNOWN:rC:NONE:v1
~Params ----------------------------------------------------
PROD   .                        PETROLOG : 
PROG   .            ['PETROLOG-TO-DLIS'] : 
RUN    .                              [] : 
DESCENT.                              [] : 
VERSION.                           10.00 : 
LINEAGE.      Python-converted from DLIS : 
ORFILE . WLC_PETRO_COMPUTED_INPUT_1.DLIS : 
~Other -----------------------------------------------------
~ASCII -----------------------------------------------------
# ...
 1414020.00000    8.47000    0.03000   62.63670   50.03610    0.17910   10.81000    2.32990   10.09800   11.05620
 1414080.00000    8.49060    0.02980   59.46100   51.13340    0.17310   12.11180    2.32060   11.62620   12.25300
 1414140.00000    8.51920    0.02030   58.46630   48.91410    0.16100   12.19760    2.34920   13.35020   14.30090
 1414200.00000    8.54000    0.01010   54.45390   47.94230    0.12810   12.09000    2.37960   15.06750   14.21200
 1414260.00000    8.52000    0.01000   52.58460   47.50000    0.11130   12.94000    2.44000   15.81000   11.26000
 1414320.00000    8.52980    0.02050   52.58460   50.27660    0.09770   12.41660    2.52160   14.74760   12.12930
 1414380.00000    8.52030    0.04910   52.58460   51.18150    0.09080   12.78830    2.60730   14.07130   11.54830
 1414440.00000    8.52980    0.05000   53.72130   49.69460    0.08340   13.26270    2.66900   12.04260   10.04420
 1414500.00000    8.53000    0.05000   56.80430   46.80000    0.07860   13.40000    2.70000   13.38000   11.04000
 1414560.00000    8.52030    0.03980   56.47780   44.21310    0.07430   12.80370    2.69980   14.13690   12.28580
 1414620.00000    8.53940    0.03000   55.04220   41.31020    0.06450   13.00320    2.68940   13.30750   12.02490
 1414680.00000    8.52040    0.03000   53.86580   40.68150    0.06270   12.17540    2.67040   12.59310   11.86300
 1414740.00000    8.53000    0.02000   53.06520   40.21000    0.07410   11.75000    2.67000   12.08000   11.39000
 1414800.00000    8.53000    0.01990   53.32240   41.47520    0.07840   11.36000    2.63960   11.44710   11.08240
 1414860.00000    8.52000    0.00970   58.22440   42.60550    0.08200   11.77000    2.60920   11.21760   11.25970
 1414920.00000    8.52000    0.00020   64.23030   42.79600    0.10620   11.77000    2.58060   10.78900   11.25020
 1414980.00000    8.56000    0.00990   67.28100   43.96380    0.10940   11.26000    2.54020    9.99420   11.79710
 1415040.00000    8.54000    0.01020   64.87870   43.21090    0.11720   10.91000    2.49990    9.30700   11.20950
 1415100.00000    8.53000    0.03020   60.92300   45.15920    0.13010   11.07340    2.49000    9.01520   10.22850
 1415160.00000    8.53000    0.03980   57.78340   45.51170    0.13710   11.20690    2.49000    8.45330    9.79030
 1415220.00000    8.56000    0.04990   60.19180   46.27390    0.12910   11.36000    2.49000    7.85470    8.87730
 1415280.00000    8.52000    0.04980   65.38780   46.12060    0.15510   11.26000    2.47980    7.44920    8.24210
 1415340.00000    8.57980    0.02000   68.25080   46.20980    0.15660   11.30110    2.45980    7.37430    8.54190
 1415400.00000    8.57030    0.02000   66.96460   47.04800    0.14220   10.93000    2.45020    8.40300   10.31350
 1415460.00000    8.56000    0.02000   59.90420   46.82270    0.15080   10.90000    2.48960    8.49930   10.34020
 1415520.00000    8.55000    0.03010   59.07500   46.14500    0.13310   11.11000    2.54040    8.85170    9.84370
 1415580.00000    8.51000    0.04000   63.48310   45.17100    0.12240   11.32850    2.60980    9.15840   10.53660
 1415640.00000    8.51000    0.04000   57.03610   42.83740    0.11070   11.73830    2.60030    9.08220   10.85090
 1415700.00000    8.52000    0.04000   64.03960   42.04970    0.11780   12.14000    2.58030    9.24770   11.49150
 1415760.00000    8.55000    0.03000   69.22300   39.42000    0.12220   12.32000    2.51000   10.03000   11.81000
 1415820.00000    8.55960    0.04020   60.31010   41.77390    0.12950   13.04770    2.45980   10.48950   12.31300
 1415880.00000    8.54060    0.04970   57.04150   40.89760    0.12990   13.45690    2.45030   10.46090   13.01780
 1415940.00000    8.54000    0.05980   57.08510   40.54530    0.12950   13.54870    2.46970   10.59780   12.88260
 1416000.00000    8.49000    0.06000   73.22150   37.97000    0.12780   14.13000    2.50000   11.20000   13.50000
 1416060.00000    8.51000    0.05980   83.69840   36.93140    0.12170   14.06300    2.55060   11.57640   12.88180
 1416120.00000    8.51030    0.05000   70.82280   40.10110    0.10610   14.25700    2.59180   12.00780   12.39440
 1416180.00000    8.51980    0.05000   66.72760   40.45350    0.10600   14.47590    2.64900   13.20790   12.85160
 1416240.00000    8.53000    0.05000   64.61280   41.22000    0.09760   14.56000    2.68000   14.65000   14.35000
 1416300.00000    8.53030    0.05000   54.43280   38.39650    0.08740   15.36170    2.71990   15.96400   15.09830
 1416360.00000    8.55030    0.05000   53.79600   38.14440    0.08850   15.48850    2.71030   17.04590   15.72180
 1416420.00000    8.55980    0.05000   60.04860   38.29680    0.08220   15.78390    2.71980   18.63660   16.13140
 1416480.00000    8.54000    0.04010   66.30110   38.21050    0.07760   16.12000    2.69020   19.29660   16.32900
 1416540.00000    8.54000    0.00990   67.70240   35.65020    0.09060   16.63000    2.61870   21.23940   17.38410
 1416600.00000    8.56950    0.00030   71.56030   34.72870    0.09150   17.58970    2.49700   19.32670   16.84200
 1416660.00000    8.55050    0.00980   70.88190   34.30010    0.10170   17.95130    2.38270   19.20290   16.91820
 1416720.00000    8.56000    0.02980   69.03610   38.48620    0.10840   17.75000    2.32050   19.36860   16.95970
 1416780.00000    8.53000    0.03990   69.33870   37.20520    0.10790   18.03000    2.26980   18.95670   16.95210
 1416840.00000    8.52960    0.03000   69.81310   36.57830    0.11070   18.51670    2.23980   18.53870   17.21070
 1416900.00000    8.51050    0.03000   69.20400   35.23520    0.11130   18.80260    2.23020   18.06250   17.23930
 1416960.00000    8.53000    0.03990   68.23920   35.23960    0.12110   18.85000    2.23000   17.19920   17.27960
 1417020.00000    8.50000    0.05010   64.91560   35.78540    0.15100   19.50000    2.23000   16.73740   16.55510
 1417080.00000    8.45120    0.05980   59.04560   34.95480    0.16300   21.20270    2.23000   16.24620   17.51560
 1417140.00000    8.50830    0.05030   55.52390   36.13590    0.17980   21.32640    2.23000   16.06520   18.25860
 1417200.00000    8.50000    0.04010   55.34440   35.56810    0.18830   22.52000    2.23990   15.55680   20.45070
 1417260.00000    8.49000    0.03000   57.84190   34.44000    0.20830   23.78000    2.24000   15.65000   14.83000
 1417320.00000    8.46070    0.04000   59.69720   33.60440    0.19480   24.72840    2.25020   15.36310   18.02460
 1417380.00000    8.49880    0.04000   61.31260   32.75670    0.19080   24.64260    2.25970   15.53460   17.72930
 1417440.00000    8.50000    0.04000   67.30040   32.04120    0.20610   26.34190    2.28950   14.76260   17.68060
 1417500.00000    8.48000    0.04000   73.32760   31.15000    0.18570   27.99000    2.32000   15.05000   18.03000
 1417560.00000    8.48000    0.04980   76.47650   31.33960    0.18660   29.76420    2.34000   16.03260   19.73580
 1417620.00000    8.48090    0.03970   78.54470   30.68590    0.18400   30.04690    2.33970   16.25270   23.83160
 1417680.00000    8.50950    0.03020   78.42020   30.23820    0.17800   30.58050    2.33020   18.24340   25.46990
 1417740.00000    8.48000    0.02000   81.44140   31.62000    0.19790   31.91000    2.32000   20.48000   28.65000
 1417800.00000    8.47000    0.02010   82.06440   32.43490    0.17570   33.92000    2.30000   22.12520   33.98320
 1417860.00000    8.45970    0.03030   81.01650   34.27970    0.18950   37.00750    2.29970   24.77450   34.43810
 1417920.00000    8.45020    0.03980   84.33980   34.27020    0.19560   37.62700    2.29020   26.31760   41.99140
 1417980.00000    8.50000    0.04990   84.85990   33.45440    0.20080   41.30000    2.29990   27.68280   50.06760
 1418040.00000    8.50000    0.05000   81.80970   32.28980    0.15630   44.93000    2.32020   29.73800   62.83350
 1418100.00000    8.49870    0.04950   79.86050   31.30250    0.15970   47.55790    2.33950   33.48850   68.68780
 1418160.00000    8.45110    0.03040   77.66270   29.87380    0.16180   46.34760    2.32050   42.19440   67.45900
 1418220.00000    8.47000    0.03000   77.51560   27.26080    0.16160   46.55000    2.30020   49.39360   67.38040
