~Version ---------------------------------------------------
VERS.   2.0 : CWLS log ASCII Standard -VERSION 2.0
WRAP.    NO : One line per depth step
DLM . SPACE : Column Data Section Delimiter
~Well ------------------------------------------------------
STRT.0.1 in          67920.00000 : START DEPTH
STOP.0.1 in        1476300.00000 : STOP DEPTH
STEP.0.1 in             60.00000 : STEP
NULL.                    -999.25 : NULL VALUE
COMP.               STATOILHYDRO : COMPANY
WELL.                  15/9-F-14 : WELL
FLD .                      VOLVE : FIELD
LOC .                            : LOCATION
PROV.                            : PROVINCE
CNTY.                            : COUNTY
STAT.                            : STATE
CTRY.                            : COUNTRY
SRVC.    CROCKER DATA PROCESSING : SERVICE COMPANY
DATE. 2009-02-18 14:31:44.282000 : DATE
UWI .                            : UNIQUE WELL ID
API .                            : API NUMBER
~Curve Information -----------------------------------------
DEPTH.0.1 in       : Measured Depth
DRHO .g/cm3        : DRHO:UNKNOWN:rC:NONE:v1
DT   .us/ft        : DT:UNKNOWN:rC:NONE:v2
DTS  .us/ft        : DTS:UNKNOWN:rC:NONE:v1
GR   .API          : GR:UNKNOWN:rC:NONE:v1
NPHI .v/v_decimal  : NPHI:UNKNOWN:rC:NONE:v1
PEF  .b/elec       : PEF:UNKNOWN:rC:NONE:v1
RD   .UNKNOWN      : RD:UNKNOWN:rC:NONE:v1
RHOB .g/cm3        : RHOB:UNKNOWN:rC:NONE:v1
RS   .UNKNOWN      : RS:UNKNOWN:rC:NONE:v1
RT   .ohm.m        : RT:UNKNOWN:rC:NONE:v1
~Params ----------------------------------------------------
PROD   .                        PETROLOG : 
PROG   .            ['PETROLOG-TO-DLIS'] : 
RUN    .                              [] : 
DESCENT.                              [] : 
VERSION.                           10.00 : 
LINEAGE.      Python-converted from DLIS : 
ORFILE . WLC_PETRO_COMPUTED_INPUT_1.DLIS : 
~Other -----------------------------------------------------
~ASCII -----------------------------------------------------
# ...
 1169460.00000    0.05170   76.66150  147.17281   59.94940    0.14480    4.99320    4.04250    2.59510    3.21230    3.37440
 1169520.00000    0.05020   76.49020  149.22070   59.97000    0.14660    4.99750    3.98240    2.59150    3.24100    3.44100
 1169580.00000    0.03910   76.73490  150.46851   60.80410    0.14260    5.00240    3.98110    2.57200    3.30690    3.56870
 1169640.00000    0.03590   74.80490  151.63100   63.17850    0.13740    4.64420    4.02850    2.57430    3.26160    3.50760
 1169700.00000    0.04110   71.84470  149.92889   64.14180    0.14500    4.61980    3.96100    2.58530    3.38870    3.72690
 1169760.00000    0.05290   71.34550  143.58929   63.94240    0.13410    4.62170    3.81490    2.59470    3.53860    3.80680
 1169820.00000    0.05370   71.59010  138.54320   61.84910    0.12520    4.63070    3.77800    2.59580    3.60780    3.96890
 1169880.00000    0.04120   70.67210  137.46930   61.82880    0.12060    4.37830    3.82310    2.58820    3.66770    4.05500
 1169940.00000    0.03100   71.06690  136.21851   62.87190    0.12670    4.11110    3.91200    2.59240    3.66580    4.04330
 1170000.00000    0.03780   72.53570  136.34210   63.35720    0.12810    4.40140    3.90150    2.59420    3.73110    4.06730
 1170060.00000    0.05930   73.84800  136.92580   62.54760    0.13530    4.79350    3.84070    2.59960    3.71890    4.00680
 1170120.00000    0.05700   73.85430  139.39250   62.04850    0.12580    4.83870    3.78740    2.58870    3.86100    4.15490
 1170180.00000    0.04550   72.30450  141.43640   62.68800    0.12980    4.59610    3.82660    2.58870    4.01130    4.29930
 1170240.00000    0.02940   71.62330  142.40269   64.11360    0.13250    4.42470    3.88340    2.58920    4.03270    4.30060
 1170300.00000    0.03570   70.83560  142.54320   63.94220    0.12500    4.53510    3.84350    2.59980    4.03120    4.32460
 1170360.00000    0.04110   69.86680  142.01440   63.23790    0.12170    4.67110    3.73110    2.59860    4.13590    4.34630
 1170420.00000    0.04790   68.68640  138.81100   61.92850    0.12150    5.00460    3.70990    2.59480    4.28740    4.63140
 1170480.00000    0.05920   68.95790  134.03320   60.33050    0.11930    5.13430    3.68310    2.60400    4.23350    4.67480
 1170540.00000    0.05580   70.04940  135.86369   58.96710    0.12050    4.89000    3.51030    2.60240    4.20500    4.65560
 1170600.00000    0.05390   70.76160  137.69431   58.68880    0.11840    4.45510    3.42280    2.61530    4.09610    4.73330
 1170660.00000    0.04010   70.13900  139.52480   60.85140    0.11740    4.16580    3.56890    2.61730    4.09230    4.60940
 1170720.00000    0.03800   70.87020  141.35530   63.43600    0.11910    4.12210    3.40080    2.62440    4.05840    4.60120
 1170780.00000    0.03230   71.77070  143.18581   65.32620    0.11510    4.06040    3.35380    2.62360    4.15730    4.25580
 1170840.00000    0.03390   70.26020  145.01640   64.14960    0.12640    4.10120    3.28870    2.62130    4.17700    4.12810
 1170900.00000    0.03100   67.99530  146.84689   62.63780    0.13720    4.15620    3.16440    2.61880    4.24600    4.18550
 1170960.00000    0.02630   65.97990  148.67740   60.97090    0.13890    4.30450    3.17780    2.60780    4.15210    3.88740
 1171020.00000    0.02100   65.80750  150.50790   61.11730    0.14570    4.67430    3.11300    2.59610    3.91300    3.94370
 1171080.00000    0.02280   67.21250  152.33850   60.22480    0.16040    5.06890    3.21680    2.60390    3.36570    3.45560
 1171140.00000    0.02560   69.78530  154.16901   58.53390    0.17040    5.43260    3.39290    2.61700    2.88060    2.83180
 1171200.00000    0.02550   73.38540  157.39960   56.10600    0.16740    5.46650    3.38680    2.63090    2.62120    2.70280
 1171260.00000    0.02590   76.43670  158.54950   52.91500    0.16010    5.49830    3.28730    2.63350    2.60450    2.66410
 1171320.00000    0.02180   76.88150  164.01030   50.98990    0.15140    5.43620    3.30320    2.63110    2.53230    2.64780
 1171380.00000    0.01890   74.84010  160.98370   48.20180    0.16430    5.27080    3.18170    2.62680    2.50800    2.66350
 1171440.00000    0.01680   74.66810  156.20280   48.30740    0.16680    5.08940    2.96430    2.62010    2.58190    2.73940
 1171500.00000    0.02010   75.27660  154.21890   51.86640    0.18040    5.00820    2.80540    2.61740    2.49380    2.84820
 1171560.00000    0.02120   77.28700  155.50320   58.98640    0.17210    5.08470    2.90030    2.61140    2.47100    2.63990
 1171620.00000    0.02050   79.28890  157.52499   64.90060    0.18960    5.13090    2.83960    2.60740    2.49780    2.49310
 1171680.00000    0.01860   80.60040  157.94350   66.84300    0.18690    5.08880    2.74310    2.60270    2.47990    2.55290
 1171740.00000    0.02220   80.27960  155.11340   67.00690    0.19050    5.03370    2.72660    2.60770    2.41340    2.73260
 1171800.00000    0.02620   79.20500  154.01199   67.78480    0.20530    5.09400    2.68900    2.60890    2.43420    2.74420
 1171860.00000    0.02740   78.41730  155.63699   68.90230    0.19950    5.10410    2.61410    2.60790    2.47360    2.64800
 1171920.00000    0.02790   77.71990  157.26160   68.90820    0.18980    5.07730    2.62030    2.60790    2.50810    2.73830
 1171980.00000    0.03020   77.13750  158.88631   67.65280    0.17910    5.04060    2.54320    2.60990    2.55080    2.68770
 1172040.00000    0.03170   76.76020  160.51089   65.92670    0.18420    5.12370    2.55260    2.60630    2.63700    2.78530
 1172100.00000    0.03220   76.48100  164.12390   63.30530    0.18410    5.17660    2.61560    2.60530    2.72590    2.97450
 1172160.00000    0.03670   76.06290  171.43390   60.31420    0.17770    5.41530    2.78480    2.61100    2.86420    3.03390
 1172220.00000    0.05130   75.84920  172.18750   57.98410    0.16590    5.73360    3.15490    2.62350    2.92020    3.14300
 1172280.00000    0.06580   75.13490  166.05270   54.81960    0.15280    6.13040    2.36200    2.63170    2.84660    3.47050
 1172340.00000    0.06650   74.06030  159.71201   54.55540    0.14610    6.11640    1.45580    2.63250    2.68160    2.78960
 1172400.00000    0.05880   73.47000  157.98340   56.44070    0.14680    5.92710    1.60440    2.63360    2.71760    2.86670
 1172460.00000    0.04910   73.64280  157.20081   61.44430    0.14510    5.62770    1.57270    2.64220    3.88600    3.29180
 1172520.00000    0.04850   73.53420  155.76019   68.44980    0.14260    6.01050    1.30020    2.67660    2.15350    4.25690
 1172580.00000    0.02000   72.14930  154.64540   87.91910    0.17460    6.53950    1.29940    2.65910    1.66360    4.42460
 1172640.00000    0.02090   73.88400  172.41029  123.95880    0.21990    6.57340   46.18010    2.61920    0.38800    0.21050
 1172700.00000    0.01990   80.13930  172.41029  167.53391    0.25430    6.06290    0.55720    2.54900    0.39880    0.16270
 1172760.00000    0.04910   88.65460  172.41029  196.73390    0.26950    5.50760    0.95550    2.52630    0.59510    0.70760
 1172820.00000    0.05440   94.09970  172.41029  203.54420    0.29500    5.31720    1.29560    2.50960    0.99950    2.00820
 1172880.00000    0.05630   95.35270  172.41029  193.78250    0.32650    5.03800    1.27040    2.49600    1.16530    1.80980
 1172940.00000    0.05080   93.95720  172.41029  181.91840    0.31480    4.66050    1.63600    2.49860    1.48410    1.33210
 1173000.00000    0.03090   92.04560  172.41029  174.51450    0.29680    4.34390    2.54240    2.48990    2.36690    1.25420
 1173060.00000    0.00450   90.99700  172.41029  167.95560    0.31140    4.24440    1.51940    2.47170    1.95220    2.37390
 1173120.00000    0.00340   91.20080  172.41029  162.31720    0.30550    4.07970    1.80400    2.46300    1.82090    2.44540
 1173180.00000    0.00830   90.24960  171.81090  154.60330    0.30830    4.03420    1.91860    2.45710    1.91440    2.25800
 1173240.00000    0.02390   89.83920  171.25870  148.37750    0.32110    3.95490    1.91790    2.47470    1.96130    2.24190
