~Version ---------------------------------------------------
VERS.   2.0 : CWLS log ASCII Standard -VERSION 2.0
WRAP.    NO : One line per depth step
DLM . SPACE : Column Data Section Delimiter
~Well ------------------------------------------------------
STRT.0.1 in          67920.00000 : START DEPTH
STOP.0.1 in        1476300.00000 : STOP DEPTH
STEP.0.1 in             60.00000 : STEP
NULL.                    -999.25 : NULL VALUE
COMP.               STATOILHYDRO : COMPANY
WELL.                  15/9-F-14 : WELL
FLD .                      VOLVE : FIELD
LOC .                            : LOCATION
PROV.                            : PROVINCE
CNTY.                            : COUNTY
STAT.                            : STATE
CTRY.                            : COUNTRY
SRVC.    CROCKER DATA PROCESSING : SERVICE COMPANY
DATE. 2009-02-18 14:31:44.282000 : DATE
UWI .                            : UNIQUE WELL ID
API .                            : API NUMBER
~Curve Information -----------------------------------------
DEPTH.0.1 in       : Measured Depth
DRHO .g/cm3        : DRHO:UNKNOWN:rC:NONE:v1
DT   .us/ft        : DT:UNKNOWN:rC:NONE:v2
DTS  .us/ft        : DTS:UNKNOWN:rC:NONE:v1
GR   .API          : GR:UNKNOWN:rC:NONE:v1
NPHI .v/v_decimal  : NPHI:UNKNOWN:rC:NONE:v1
PEF  .b/elec       : PEF:UNKNOWN:rC:NONE:v1
RD   .UNKNOWN      : RD:UNKNOWN:rC:NONE:v1
RHOB .g/cm3        : RHOB:UNKNOWN:rC:NONE:v1
RS   .UNKNOWN      : RS:UNKNOWN:rC:NONE:v1
RT   .ohm.m        : RT:UNKNOWN:rC:NONE:v1
~Params ----------------------------------------------------
PROD   .                        PETROLOG : 
PROG   .            ['PETROLOG-TO-DLIS'] : 
RUN    .                              [] : 
DESCENT.                              [] : 
VERSION.                           10.00 : 
LINEAGE.      Python-converted from DLIS : 
ORFILE . WLC_PETRO_COMPUTED_INPUT_1.DLIS : 
~Other -----------------------------------------------------
~ASCII -----------------------------------------------------
# ...
 1242420.00000    0.03950   82.85690  146.61810   38.34330    0.16180    3.85740   92.54710    2.33730   69.19960  144.48250
 1242480.00000    0.03980   83.10370  145.82790   30.18650    0.17160    3.79360   85.02510    2.30710   94.32600  289.52890
 1242540.00000    0.05110   84.32710  145.65491   24.31910    0.16520    3.64620   83.66790    2.27460  116.86390  189.22090
 1242600.00000    0.04500   85.67070  145.57080   21.00240    0.17540    3.48140   80.30560    2.23090  181.88000  184.91400
 1242660.00000    0.04690   85.82710  144.87410   19.41840    0.18000    3.38790   79.61080    2.22450  254.35921  210.52200
 1242720.00000    0.03780   87.75000  143.97479   18.94830    0.17470    3.37170   82.46480    2.20600  230.38020  266.23251
 1242780.00000    0.03620   88.77520  143.49229   20.29790    0.17690    3.38350   88.22760    2.19280  182.93581  340.85580
 1242840.00000    0.03310   89.19170  143.50591   21.17240    0.18540    3.44820   87.77860    2.17440  202.99200  304.63440
 1242900.00000    0.03360   89.25260  144.08440   19.97670    0.18040    3.46880   88.76150    2.16560  236.03551  317.16940
 1242960.00000    0.03400   88.91340  145.13600   17.99140    0.17900    3.55180   91.42380    2.16230  275.16660  300.51480
 1243020.00000    0.03700   89.97110  145.72630   16.77100    0.18450    3.66430   89.39720    2.16480  307.14191  274.34830
 1243080.00000    0.03920   90.21720  145.96620   16.88750    0.18650    3.83050   90.74540    2.16340  267.87091  301.86771
 1243140.00000    0.04800   90.47170  146.92419   18.62490    0.17430    4.03510   91.05160    2.17020  334.62149  297.15421
 1243200.00000    0.04670   90.57750  147.20660   19.99480    0.18720    3.94220   85.44280    2.17220  316.45309  298.29681
 1243260.00000    0.04350   89.76520  147.45779   21.17730    0.17210    3.71240   92.41120    2.17600  378.58319  318.05209
 1243320.00000    0.03580   89.17490  147.21910   19.22690    0.18260    3.43250   97.56390    2.17700  298.17059  338.98871
 1243380.00000    0.03840   88.80480  145.23129   18.82560    0.17980    3.29980   92.43060    2.18630  364.97940  325.39139
 1243440.00000    0.03780   87.84580  143.07060   18.25110    0.16190    3.17510   93.96850    2.18870  357.12540  323.38541
 1243500.00000    0.03630   87.98540  142.29539   19.48760    0.16960    2.98970   97.03290    2.19260  343.30551  348.86151
 1243560.00000    0.03130   88.00940  140.45050   19.11600    0.17000    2.89890  103.54720    2.18830  358.48270  373.09698
 1243620.00000    0.03060   87.67370  139.89670   18.76570    0.16240    2.87030   99.11210    2.19140  433.69641  368.74271
 1243680.00000    0.02840   87.77950  139.38670   17.24720    0.17330    2.83550  111.43190    2.18600  369.95709  372.54431
 1243740.00000    0.02390   87.23860  138.96510   16.18160    0.16050    2.70890  103.86980    2.18450  446.53589  391.80020
 1243800.00000    0.02600   87.19700  139.15900   16.00060    0.16820    2.64580   97.29180    2.18990  448.80719  384.32761
 1243860.00000    0.02920   86.73800  139.77119   15.63150    0.16950    2.66460  107.48980    2.19860  420.71439  398.96771
 1243920.00000    0.02980   86.78740  139.92310   15.17200    0.15740    2.73020  104.73900    2.19800  456.91870  408.60620
 1243980.00000    0.02400   87.48620  139.40410   14.43260    0.16240    2.73420  110.31440    2.19210  392.15839  409.36469
 1244040.00000    0.01580   89.04380  138.74530   15.94990    0.16120    2.68030  117.99560    2.18320  451.07870  433.44601
 1244100.00000    0.01800   89.15030  138.72791   16.15230    0.17090    2.69620  115.92450    2.18630  445.59470  431.72900
 1244160.00000    0.02090   88.71450  139.05360   16.62320    0.16660    2.71480  122.87890    2.18830  570.43372  406.38171
 1244220.00000    0.02960   87.53340  139.59830   16.40360    0.16800    2.79700  104.20250    2.19420  669.93829  420.72760
 1244280.00000    0.02970   87.40360  139.97681   15.96380    0.16480    2.91270  112.41220    2.19030  616.15082  434.53851
 1244340.00000    0.03110   88.23080  140.64290   16.68870    0.15930    2.90250  112.27380    2.19160  553.14429  478.21179
 1244400.00000    0.03130   87.09760  140.64580   16.05460    0.15360    2.78160  105.44050    2.19920  728.59448  451.87881
 1244460.00000    0.02690   85.90170  140.46860   16.45090    0.18310    2.56440  124.56700    2.20170  617.01459  426.68030
 1244520.00000    0.02020   86.70560  140.68851   14.94740    0.16320    2.39540  131.26920    2.20060  808.25751  453.94641
 1244580.00000    0.01120   87.04970  141.00500   14.42440    0.16800    2.33790  119.11920    2.19120  637.05969  474.17770
 1244640.00000    0.00730   86.67170  141.39191   14.49070    0.17090    2.28620  128.38741    2.18600  647.79773  471.15671
 1244700.00000    0.00940   85.99120  141.77870   15.91650    0.17760    2.34130  122.88970    2.18570  648.58240  458.02649
 1244760.00000    0.01220   86.27120  142.24480   17.17550    0.17130    2.37280  121.98970    2.18330  733.31708  473.30991
 1244820.00000    0.01450   87.51010  142.89529   17.53940    0.16850    2.38530  122.60160    2.17910  623.07452  504.61319
 1244880.00000    0.01210   88.36260  143.63420   16.68040    0.17730    2.36070  121.67160    2.17160  581.14569  508.91739
 1244940.00000    0.00830   88.43670  144.68890   16.57400    0.18970    2.30520  126.58430    2.16840  823.40918  481.15121
 1245000.00000    0.00630   88.73210  145.38319   17.13910    0.17870    2.40270  119.70440    2.17060  627.33502  507.03940
 1245060.00000    0.00730   89.38930  145.91960   18.11040    0.17020    2.39030  124.34060    2.17270  717.74292  515.60498
 1245120.00000    0.00700   90.31520  146.33211   18.55720    0.18140    2.46420  118.54740    2.16950  836.40149  526.55621
 1245180.00000    0.00880   90.08600  146.06850   17.63810    0.18250    2.60280  116.09640    2.16700  850.13458  515.33728
 1245240.00000   -0.00250   90.44700  145.95441   16.91080    0.18110    3.39170  119.79050    2.14890  909.99017  484.88840
 1245300.00000   -0.00560   90.38850  146.07750   16.13320    0.17760    4.18540  122.11510    2.15810 1001.36700  498.39499
 1245360.00000   -0.00520   89.61000  146.29739   16.03020    0.17590    4.74980  117.52910    2.16710 1040.32703  550.58020
 1245420.00000    0.00480   89.90550  146.53461   16.67850    0.19380    4.22850  113.38950    2.18470  992.33398  508.57150
 1245480.00000    0.01870   90.11840  146.71060   17.42560    0.18550    3.44810  126.45260    2.18660 1088.00598  541.42609
 1245540.00000    0.02460   89.91320  146.99170   18.60730    0.19580    2.99060  121.41120    2.18370  758.95062  444.12680
 1245600.00000    0.03130   89.61780  146.78020   18.72880    0.18450    2.61570  115.64080    2.19250  845.03650  496.86981
 1245660.00000    0.02900   89.35550  146.13870   17.53150    0.17020    2.67140  117.60330    2.19200  807.62183  453.84689
 1245720.00000    0.02250   89.67630  146.06020   18.35210    0.17760    2.69490  112.94620    2.18950 1670.83398  495.80661
 1245780.00000    0.02060   90.35610  146.57010   19.10570    0.17560    2.79950  109.13280    2.18520  808.03473  475.03510
 1245840.00000    0.02040   89.52680  146.96530   19.84710    0.18400    2.86480  108.95210    2.18590  674.31799  466.25659
 1245900.00000    0.02770   88.22230  146.86861   18.66720    0.18500    2.98500  112.94790    2.19340  693.55243  456.25711
 1245960.00000    0.02560   87.17240  146.90410   18.50080    0.18060    3.08690  126.99170    2.18600  642.79309  430.42969
 1246020.00000    0.03280   86.25290  146.81490   19.52780    0.17830    3.19950  111.29800    2.18610  658.46191  431.87061
 1246080.00000    0.03490   85.08020  145.67261   18.51750    0.17820    3.29380  116.70950    2.17840  787.51929  420.98700
 1246140.00000    0.03480   84.48080  144.93370   17.73270    0.18360    3.26490  111.74300    2.18470  749.94647  478.25970
 1246200.00000    0.02840   83.85820  143.72031   17.07720    0.18590    3.32500  107.41570    2.19310  497.52579  413.57809
