~Version ---------------------------------------------------
VERS.   2.0 : CWLS log ASCII Standard -VERSION 2.0
WRAP.    NO : One line per depth step
DLM . SPACE : Column Data Section Delimiter
~Well ------------------------------------------------------
STRT.0.1 in             165840.0 : START DEPTH
STOP.0.1 in            1492980.0 : STOP DEPTH
STEP.0.1 in                 60.0 : STEP
NULL.                    -999.25 : NULL VALUE
COMP.                            : COMPANY
WELL.                   15/9-F-5 : WELL
FLD .                      VOLVE : FIELD
LOC .                            : LOCATION
PROV.                            : PROVINCE
CNTY.                            : COUNTY
STAT.                            : STATE
CTRY.                            : COUNTRY
SRVC.    CROCKER DATA PROCESSING : SERVICE COMPANY
DATE. 2009-02-18 14:44:38.068000 : DATE
UWI .                            : UNIQUE WELL ID
API .                            : API NUMBER
~Curve Information -----------------------------------------
DEPTH.0.1 in       : Measured Depth
CALI .inches       : CALI:UNKNOWN:rC:NONE:v1
DRHO .g/cm3        : DRHO:UNKNOWN:rC:NONE:v1
DT   .us/ft        : DT:UNKNOWN:rC:NONE:v1
GR   .API          : GR:UNKNOWN:rC:NONE:v1
NPHI .v/v_decimal  : NPHI:UNKNOWN:rC:NONE:v1
RD   .UNKNOWN      : RD:UNKNOWN:rC:NONE:v1
RHOB .g/cm3        : RHOB:UNKNOWN:rC:NONE:v1
RS   .UNKNOWN      : RS:UNKNOWN:rC:NONE:v1
RT   .ohm.m        : RT:UNKNOWN:rC:NONE:v1
~Params ----------------------------------------------------
PROD   .                        PETROLOG : 
PROG   .            ['PETROLOG-TO-DLIS'] : 
RUN    .                              [] : 
DESCENT.                              [] : 
VERSION.                           10.00 : 
LINEAGE.      Python-converted from DLIS : 
ORFILE . WLC_PETRO_COMPUTED_INPUT_1.DLIS : 
~Other -----------------------------------------------------
~ASCII -----------------------------------------------------
# ...
 1392720.00000    8.49000    0.03000   92.25100   21.03660    0.19370   42.52000    2.23030   23.30000   53.35610
 1392780.00000    8.51000    0.05010   90.64260   20.86950    0.18170   40.99000    2.24020   24.51260   39.22990
 1392840.00000    8.47090    0.06020   89.55200   24.58560    0.20320   45.09930    2.26110   26.04390   45.55480
 1392900.00000    8.50900    0.06980   88.90010   26.93820    0.20060   50.64590    2.30870   24.93900   51.26030
 1392960.00000    8.48000    0.06010   88.04650   28.92920    0.19020   50.39000    2.31000   17.86590   48.80800
 1393020.00000    8.48000    0.04990   84.03900   27.96650    0.19870   48.03000    2.28990   17.23890   37.78360
 1393080.00000    8.49980    0.04000   79.12510   27.32500    0.20310   44.35510    2.28000   18.90760   36.54780
 1393140.00000    8.49030    0.04000   76.05130   28.03940    0.18220   42.73740    2.28000   19.26960   34.06180
 1393200.00000    8.52000    0.04000   74.35850   27.08320    0.16340   43.39000    2.28000   29.46240   44.51770
 1393260.00000    8.49000    0.03000   74.51600   25.82000    0.16730   42.33000    2.30000   29.53000   48.28000
 1393320.00000    8.50930    0.02980   78.71450   24.34010    0.15560   41.00150    2.32030   36.98430   54.88150
 1393380.00000    8.47120    0.02030   84.91130   22.71130    0.15630   41.63050    2.33940   41.57540   56.59600
 1393440.00000    8.47980    0.02000   87.76780   20.79040    0.15940   39.84030    2.33020   34.10380   45.57020
 1393500.00000    8.50000    0.03000   87.33450   18.18000    0.17660   34.90000    2.29000   42.52000   44.63000
 1393560.00000    8.51970    0.04980   88.00810   17.98920    0.18290   35.74190    2.24950   46.92780   48.41870
 1393620.00000    8.50030    0.04030   88.59160   16.68510    0.18280   35.29000    2.22000   52.89560   51.05830
 1393680.00000    8.50980    0.04980   90.72120   15.89450    0.17620   35.92850    2.22000   51.48590   59.25930
 1393740.00000    8.52000    0.05000   91.41020   14.46000    0.20090   36.60000    2.21000   54.54000   56.34000
 1393800.00000    8.52000    0.04990   90.57850   15.07110    0.21750   38.55000    2.20990   56.40270   56.68840
 1393860.00000    8.54140    0.04000   91.59340   15.15470    0.19500   38.83600    2.20000   64.05690   55.18840
 1393920.00000    8.58900    0.04000   90.26070   15.31660    0.19070   39.37840    2.20000   66.02860   58.59840
 1393980.00000    8.55000    0.04990   87.33270   16.09580    0.19510   41.33000    2.20990   69.53140   62.10160
 1394040.00000    8.56000    0.05000   87.11750   18.38860    0.18460   44.61000    2.22990   67.88930   73.28530
 1394100.00000    8.59870    0.04980   89.85400   20.11750    0.19830   44.75100    2.21920   75.49620   65.59120
 1394160.00000    8.55110    0.04020   92.75710   20.40320    0.20860   46.31400    2.19070   85.25940   71.73490
 1394220.00000    8.60000    0.03010   93.20930   18.40620    0.21930   48.59000    2.17020   89.43820   77.71300
 1394280.00000    8.61000    0.03010   89.54440   15.84770    0.18930   48.94000    2.16010   89.17940   81.09130
 1394340.00000    8.53960    0.04020   87.34200   14.33600    0.19210   49.21860    2.17000   94.22410   85.01610
 1394400.00000    8.52050    0.04980   86.04370   15.01220    0.20050   52.21110    2.17000  100.74870   86.96880
 1394460.00000    8.52000    0.05000   84.16190   15.59390    0.20070   50.00000    2.17000  101.84010   89.74070
 1394520.00000    8.52000    0.05000   83.35580   15.88280    0.19270   54.16000    2.17010  101.77570   94.28960
 1394580.00000    8.52980    0.05020   85.03070   14.56300    0.19880   54.94980    2.18040  104.62340   97.90360
 1394640.00000    8.52030    0.05970   84.17460   15.18210    0.19600   55.88380    2.19950  100.97530   95.69380
 1394700.00000    8.55000    0.06000   84.55250   15.22960    0.19560   57.62000    2.20990  100.49510   91.87080
 1394760.00000    8.53000    0.05000   86.16800   15.61000    0.19370   57.14000    2.21000   94.81000   89.66000
 1394820.00000    8.52980    0.05020   85.88880   14.33440    0.19950   58.45500    2.20980   91.69000   91.21300
 1394880.00000    8.52030    0.05970   85.15060   14.57250    0.20520   62.64830    2.20030   79.17420   86.47910
 1394940.00000    8.52980    0.06000   85.31120   14.31430    0.21140   61.18470    2.20000  102.30740   92.74570
 1395000.00000    8.52000    0.06000   85.23750   16.07000    0.18690   59.92000    2.19000  107.09000   89.20000
 1395060.00000    8.53950    0.06000   84.72350   16.91660    0.18660   57.92560    2.18000  106.63650   90.15360
 1395120.00000    8.50940    0.06000   84.36390   16.68390    0.19510   60.72630    2.18030  100.14430   84.57000
 1395180.00000    8.49030    0.06000   82.35470   15.85520    0.19070   62.87060    2.18980   96.15330   75.99750
 1395240.00000    8.47000    0.06000   84.02330   14.13000    0.19110   52.60000    2.20000   92.80000  106.12000
 1395300.00000    8.51000    0.08000   85.34530   14.24640    0.18060   53.28000    2.22010   82.87630   86.23450
 1395360.00000    8.51940    0.08000   84.18310   13.96980    0.17520   54.07190    2.23000   77.09490   92.28040
 1395420.00000    8.50040    0.08000   84.15270   13.61740    0.17850   51.74060    2.23000   65.83640   85.02240
 1395480.00000    8.50000    0.08000   79.62190   13.56030    0.17900   53.67000    2.23990   54.92720  100.69510
 1395540.00000    8.55000    0.08000   77.88620   12.37760    0.15460   51.28000    2.26030   42.17950   99.25480
 1395600.00000    8.53930    0.07980   76.40380   12.16300    0.15150   53.15950    2.29030   38.30050  115.26770
 1395660.00000    8.51070    0.07020   74.40370   12.65830    0.17750   40.38900    2.29980   33.74760   72.51000
 1395720.00000    8.51000    0.06010   73.96470   14.32660    0.16810   29.88000    2.28020   47.75620   46.17420
 1395780.00000    8.51000    0.07010   78.38100   16.34950    0.16280   27.87000    2.28060 5000.00000   35.99620
 1395840.00000    8.51860    0.07930   81.10090   17.56620    0.16700   30.32710    2.36160 5000.00000   27.31280
 1395900.00000    8.46150    0.05070   81.99030   19.09980    0.17190   12.39950    2.42830 5000.00000  151.89030
 1395960.00000    8.47000    0.01040   82.92470   20.05020    0.15680   23.33000    2.43000 5000.00000  268.29031
 1396020.00000    8.48000    0.00010   81.54100   20.51150    0.16540  200.00000    2.33970   29.89800    2.28880
 1396080.00000    8.50940    0.02040   79.41910   18.88360    0.17290   52.38160    2.28960   16.33080    5.82740
 1396140.00000    8.48080    0.03950   79.37370   17.15000    0.17600   40.44970    2.27060    9.70140    7.13230
 1396200.00000    8.49970    0.04000   80.09100   14.82080    0.19140  197.77910    2.26010    6.10600    5.16710
 1396260.00000    8.50000    0.04000   81.69570   16.77000    0.16700  200.00000    2.26000    6.11000    2.39000
 1396320.00000    8.51050    0.05020   83.85250   18.73060    0.19000   21.71310    2.26020   62.16550  359.82129
 1396380.00000    8.53910    0.05970   83.56660   20.94040    0.20800   23.44490    2.26970   34.70490   65.97500
 1396440.00000    8.54000    0.06000   80.67770   22.03340    0.18710   26.32500    2.27980   44.31960   57.36940
 1396500.00000    8.52000    0.05000   82.12890   20.50000    0.19130   26.96000    2.27000   76.38000   55.73000
 1396560.00000    8.44970    0.04980   84.76120   20.01620    0.18360   31.98210    2.26980   39.31170   66.71950
 1396620.00000    8.43030    0.03970   84.22360   18.58180    0.18630   31.48010    2.26000   36.39760   61.19160
 1396680.00000    8.43980    0.03020   82.63540   19.59140    0.20180   30.86160    2.26000   38.22640   42.82740
 1396740.00000    8.46000    0.03000   84.08500   21.70000    0.17980   32.39000    2.24000   36.93000   41.35000
 1396800.00000    8.42000    0.03010   85.56810   22.05810    0.18130   34.96000    2.22990   36.36720   39.22990
 1396860.00000    8.45950    0.04000   85.50070   22.58580    0.19220   33.88490    2.22000   33.44500   38.58340
 1396920.00000    8.44040    0.04000   85.46840   20.01400    0.18460   35.09520    2.22000   41.93180   42.16480
