~Version ---------------------------------------------------
VERS.   2.0 : CWLS log ASCII Standard -VERSION 2.0
WRAP.    NO : One line per depth step
DLM . SPACE : Column Data Section Delimiter
~Well ------------------------------------------------------
STRT.0.1 in          67920.00000 : START DEPTH
STOP.0.1 in        1476300.00000 : STOP DEPTH
STEP.0.1 in             60.00000 : STEP
NULL.                    -999.25 : NULL VALUE
COMP.               STATOILHYDRO : COMPANY
WELL.                  15/9-F-14 : WELL
FLD .                      VOLVE : FIELD
LOC .                            : LOCATION
PROV.                            : PROVINCE
CNTY.                            : COUNTY
STAT.                            : STATE
CTRY.                            : COUNTRY
SRVC.    CROCKER DATA PROCESSING : SERVICE COMPANY
DATE. 2009-02-18 14:31:44.282000 : DATE
UWI .                            : UNIQUE WELL ID
API .                            : API NUMBER
~Curve Information -----------------------------------------
DEPTH.0.1 in       : Measured Depth
DRHO .g/cm3        : DRHO:UNKNOWN:rC:NONE:v1
DT   .us/ft        : DT:UNKNOWN:rC:NONE:v2
DTS  .us/ft        : DTS:UNKNOWN:rC:NONE:v1
GR   .API          : GR:UNKNOWN:rC:NONE:v1
NPHI .v/v_decimal  : NPHI:UNKNOWN:rC:NONE:v1
PEF  .b/elec       : PEF:UNKNOWN:rC:NONE:v1
RD   .UNKNOWN      : RD:UNKNOWN:rC:NONE:v1
RHOB .g/cm3        : RHOB:UNKNOWN:rC:NONE:v1
RS   .UNKNOWN      : RS:UNKNOWN:rC:NONE:v1
RT   .ohm.m        : RT:UNKNOWN:rC:NONE:v1
~Params ----------------------------------------------------
PROD   .                        PETROLOG : 
PROG   .            ['PETROLOG-TO-DLIS'] : 
RUN    .                              [] : 
DESCENT.                              [] : 
VERSION.                           10.00 : 
LINEAGE.      Python-converted from DLIS : 
ORFILE . WLC_PETRO_COMPUTED_INPUT_1.DLIS : 
~Other -----------------------------------------------------
~ASCII -----------------------------------------------------
# ...
 1419060.00000    0.03430   84.21710  144.09280   28.33020    0.17340    2.65540   29.83170    2.22240   34.71410   36.67200
 1419120.00000    0.03590   82.24130  145.11890   27.91780    0.18610    2.61660   29.81970    2.24160   34.84440   36.56540
 1419180.00000    0.03590   81.72370  145.78070   27.02560    0.17620    2.56150   29.91540    2.27340   36.70590   37.61640
 1419240.00000    0.03020   80.57510  146.01810   25.62350    0.16430    2.57340   30.11310    2.29270   38.62120   39.30160
 1419300.00000    0.02750   80.03140  146.00990   24.32280    0.17680    2.65160   29.68860    2.30820   41.37530   40.72630
 1419360.00000    0.01870   81.12360  145.33321   24.29110    0.17330    2.69570   29.44220    2.30740   41.50020   41.92470
 1419420.00000    0.01580   82.90050  143.88020   23.99850    0.17550    2.65890   30.11320    2.30290   44.54990   43.77390
 1419480.00000    0.01370   85.42370  141.48891   24.29680    0.17470    2.60260   30.28960    2.29090   44.23180   43.05220
 1419540.00000    0.01670   87.77340  139.95140   25.16810    0.17460    2.54870   29.97450    2.27060   44.68070   43.58080
 1419600.00000    0.02250   87.41310  139.47670   25.91640    0.17050    2.53370   30.06240    2.26010   45.36440   43.25720
 1419660.00000    0.02410   85.64210  139.71581   26.67330    0.16220    2.50710   29.77150    2.24700   45.73860   43.75790
 1419720.00000    0.03110   80.19000  141.01450   27.27530    0.17810    2.50080   29.95680    2.25490   47.64390   45.61290
 1419780.00000    0.02790   78.87430  141.78050   28.59690    0.17200    2.57620   31.34650    2.25180   45.19530   45.21720
 1419840.00000    0.03850   76.24480  141.70000   28.07370    0.17920    2.80730   30.74130    2.25740   44.14320   44.76370
 1419900.00000    0.04440   79.07800  141.21370   27.40180    0.18220    3.08410   31.50720    2.25080   40.64330   43.11670
 1419960.00000    0.05550   83.02120  140.00600   26.84880    0.17020    3.32080   31.65910    2.24800   41.40840   43.78480
 1420020.00000    0.05010   83.21790  138.58000   26.59070    0.16640    3.15740   32.06710    2.24870   43.47160   41.29660
 1420080.00000    0.03790   83.04520  139.26089   27.14400    0.17530    3.09790   31.69940    2.24080   43.99480   42.34400
 1420140.00000    0.03830   83.25250  142.08620   27.38430    0.17500    3.12500   32.84440    2.26370   44.32830   46.36420
 1420200.00000    0.04330   85.02310  141.01939   27.19610    0.16980    3.45080   32.81840    2.28460   45.64670   44.95890
 1420260.00000    0.04990   84.62820  137.25771   27.05640    0.15960    3.55000   33.83160    2.31850   46.98700   45.85710
 1420320.00000    0.04110   83.94920  135.02600   26.29650    0.17510    3.43230   33.26700    2.32340   48.41600   47.81860
 1420380.00000    0.03170   85.05620  133.84740   26.10460    0.17370    3.16510   33.58400    2.32000   49.99450   48.54780
 1420440.00000    0.02640   84.91520  132.79420   25.80950    0.17670    2.94240   33.29540    2.31740   50.36080   47.13570
 1420500.00000    0.02470   83.16890  133.64709   25.62290    0.16560    2.87490   33.05180    2.31250   51.27190   49.01280
 1420560.00000    0.01840   81.62030  134.20850   25.86960    0.15940    2.82100   33.72450    2.30080   52.51660   49.73150
 1420620.00000    0.02050   81.06970  133.46130   25.44800    0.15560    2.85670   34.40850    2.28410   55.38180   51.41390
 1420680.00000    0.02230   81.36410  133.31979   25.99510    0.15120    2.83530   33.92870    2.26590   54.01980   52.95410
 1420740.00000    0.03190   81.97610  134.81261   26.65390    0.15850    2.92660   35.72900    2.25190   54.66970   53.79120
 1420800.00000    0.03100   82.12750  137.55510   27.62690    0.15780    2.94400   35.22670    2.23580   54.18440   54.65160
 1420860.00000    0.02800   82.42820  142.38890   28.02730    0.16800    2.86630   34.44150    2.22630   58.61040   51.13160
 1420920.00000    0.02410   83.09450  146.33211   30.98960    0.16890    2.79760   33.37460    2.22120   57.35170   53.74100
 1420980.00000    0.02930   82.00160  145.19580   31.85320    0.16970    2.68250   33.00090    2.22930   55.35720   54.51220
 1421040.00000    0.02830   79.77120  142.89529   32.02160    0.17410    2.68430   32.09880    2.24870   52.09360   48.15540
 1421100.00000    0.03730   78.70360  143.89861   30.11090    0.17560    2.83070   31.47690    2.25640   47.21670   46.64860
 1421160.00000    0.03340   77.26090  146.05260   29.78430    0.16870    2.61650   33.48220    2.26490   57.74510   55.55930
 1421220.00000    0.03160   76.86600  147.85370   31.29720    0.18020    2.54230   33.60370    2.25080   59.24450   58.75710
 1421280.00000    0.02250   75.57000  146.91161   31.18580    0.18260    2.48360   35.86450    2.25350   60.08030   57.92710
 1421340.00000    0.01470   74.98270  142.23000   30.98320    0.17970    2.48020   33.26400    2.24580   63.50130   57.80700
 1421400.00000    0.01180   75.53210  139.30470   30.72330    0.18090    2.44150   33.30310    2.24780   58.66670   59.02080
 1421460.00000    0.01050   77.86920  138.37601   30.45710    0.18520    2.36870   31.43750    2.24410   55.38300   62.22670
 1421520.00000    0.00870   81.98930  140.38480   31.75900    0.16730    2.31040   34.86350    2.23900   52.99180   65.39440
 1421580.00000    0.01120   83.17160  140.48010   31.24330    0.17180    2.30860   33.49860    2.23630   49.30910   61.90270
 1421640.00000    0.01630   82.81740  139.54030   33.77650    0.17160    2.32270   33.09640    2.24380   51.93940   65.92380
 1421700.00000    0.02290   82.98680  139.80980   32.27290    0.16870    2.36660   34.53340    2.25630   54.79880   71.74960
 1421760.00000    0.02600   82.83610  140.27451   31.69870    0.17330    2.36360   35.45120    2.27040   48.58390   79.25040
 1421820.00000    0.02670   81.81890  139.74789   29.13390    0.16580    2.43810   38.30280    2.27820   50.22840   85.63570
 1421880.00000    0.01920   80.80630  139.93069   30.27330    0.16160    2.44970   42.44460    2.27840   48.52000  104.96040
 1421940.00000    0.01410   82.30900  139.68111   30.43820    0.16760    2.48200   42.99580    2.27150   45.17980  127.96890
 1422000.00000    0.01080   84.13670  139.43159   29.25180    0.15850    2.56140   42.11720    2.26390   43.04280  125.73990
 1422060.00000    0.01960   83.66610  138.57930   28.40520    0.16150    2.64070   47.77900    2.27190   46.45710  156.59090
 1422120.00000    0.02460   82.61430  137.99741   27.57080   -4.91490    2.74210   42.87460    2.28350   52.48410  141.56931
 1422180.00000    0.03010   81.61810  136.29900   28.11170    0.16260    2.72670   32.42910    2.30690   56.72560  104.74400
 1422240.00000    0.02540   81.29590  133.77010   29.14040    0.16130    2.80280   31.61130    2.32840   54.06840  133.23100
 1422300.00000    0.02490   81.50680  133.82561   31.00020    0.17150    2.80790   29.27390    2.36060   62.80040  147.49600
 1422360.00000    0.02000   81.94640  134.73210   36.16040    0.16890    2.86660   27.87490    2.39380   92.06790   95.79890
 1422420.00000    0.02060   82.33640  135.51350   40.63520    0.17390    3.05770   26.40500    2.41220   68.37400   64.09990
 1422480.00000    0.03020   81.75230  135.93021   44.96280    0.17940    3.36590   27.24450    2.40680   49.61350   62.78700
 1422540.00000    0.03750   79.28900  137.15190   47.09610    0.18830    3.43510   26.35050    2.38120   44.76810   51.21050
 1422600.00000    0.03700   76.05960  139.02409   50.40700    0.20420    3.36630   23.44240    2.35190   25.74020   29.65760
 1422660.00000    0.03210   73.20250  139.79970   53.56700    0.20950    3.14320   21.66130    2.32820   19.83390   25.30620
 1422720.00000    0.02970   72.90020  140.27721   57.64980    0.20230    3.09510   22.63390    2.31450   13.80550   15.72310
 1422780.00000    0.03270   73.88840  140.62390   59.08380    0.20500    2.96150   23.91740    2.31000   10.87760   11.12600
 1422840.00000    0.02930   73.92770  142.13049   59.16170    0.21530    2.99330   19.61770    2.30520   10.60550   13.16080
