~Version ---------------------------------------------------
VERS.   2.0 : CWLS log ASCII Standard -VERSION 2.0
WRAP.    NO : One line per depth step
DLM . SPACE : Column Data Section Delimiter
~Well ------------------------------------------------------
STRT.0.1 in          67920.00000 : START DEPTH
STOP.0.1 in        1476300.00000 : STOP DEPTH
STEP.0.1 in             60.00000 : STEP
NULL.                    -999.25 : NULL VALUE
COMP.               STATOILHYDRO : COMPANY
WELL.                  15/9-F-14 : WELL
FLD .                      VOLVE : FIELD
LOC .                            : LOCATION
PROV.                            : PROVINCE
CNTY.                            : COUNTY
STAT.                            : STATE
CTRY.                            : COUNTRY
SRVC.    CROCKER DATA PROCESSING : SERVICE COMPANY
DATE. 2009-02-18 14:31:44.282000 : DATE
UWI .                            : UNIQUE WELL ID
API .                            : API NUMBER
~Curve Information -----------------------------------------
DEPTH.0.1 in       : Measured Depth
DRHO .g/cm3        : DRHO:UNKNOWN:rC:NONE:v1
DT   .us/ft        : DT:UNKNOWN:rC:NONE:v2
DTS  .us/ft        : DTS:UNKNOWN:rC:NONE:v1
GR   .API          : GR:UNKNOWN:rC:NONE:v1
NPHI .v/v_decimal  : NPHI:UNKNOWN:rC:NONE:v1
PEF  .b/elec       : PEF:UNKNOWN:rC:NONE:v1
RD   .UNKNOWN      : RD:UNKNOWN:rC:NONE:v1
RHOB .g/cm3        : RHOB:UNKNOWN:rC:NONE:v1
RS   .UNKNOWN      : RS:UNKNOWN:rC:NONE:v1
RT   .ohm.m        : RT:UNKNOWN:rC:NONE:v1
~Params ----------------------------------------------------
PROD   .                        PETROLOG : 
PROG   .            ['PETROLOG-TO-DLIS'] : 
RUN    .                              [] : 
DESCENT.                              [] : 
VERSION.                           10.00 : 
LINEAGE.      Python-converted from DLIS : 
ORFILE . WLC_PETRO_COMPUTED_INPUT_1.DLIS : 
~Other -----------------------------------------------------
~ASCII -----------------------------------------------------
# ...
 1192500.00000    0.01690   81.87250  152.81059   76.84090    0.24170    4.24900    5.19370    2.53360    2.93190    3.26760
 1192560.00000    0.00530   82.03610  150.94910   80.45070    0.25930    4.47740    5.39210    2.54060    2.57520    3.03210
 1192620.00000   -0.00100   81.37890  148.51620   84.88720    0.26940    4.63220    4.60880    2.54820    2.85890    6.48360
 1192680.00000    0.00210   80.28030  147.90410   88.02430    0.27370    4.73620    7.51270    2.54950    2.35740    2.60490
 1192740.00000    0.01750   79.11260  147.22060   90.90660    0.29600    4.42290    4.62890    2.54070    2.40330    3.61340
 1192800.00000    0.03760   76.65450  148.11459   91.18020    0.29160    4.35520    4.73000    2.55090    2.72190    3.48170
 1192860.00000    0.04490   80.10680  149.33890   90.86390    0.28680    4.59520    6.03120    2.57470    2.73740    2.56210
 1192920.00000    0.02760   84.42510  149.44209   84.18720    0.25730    5.26630    5.62510    2.57450    2.98920    4.38810
 1192980.00000    0.00590   79.15350  146.37241   76.70930    0.24360    5.36350    6.78980    2.52940    2.87130    2.08270
 1193040.00000   -0.01630   84.82130  147.32750   66.63160    0.23070    4.71450    9.21410    2.40310    4.73990    3.94680
 1193100.00000   -0.01110   85.24440  149.33940   57.67340    0.22650    3.46380   34.76590    2.29590   11.50640   12.22790
 1193160.00000   -0.00070   85.24440  151.32970   46.81510    0.23120    2.85290  138.00160    2.20330   30.63360   19.28820
 1193220.00000    0.02180   85.33480  151.32210   38.03190    0.22470    2.59710  200.00000    2.16850   29.51930 5000.00000
 1193280.00000    0.02400   85.52830  150.48480   30.90900    0.21730    2.56140  200.00000    2.15320 5000.00000 5000.00000
 1193340.00000    0.02080   85.43170  150.45570   25.57510    0.21120    2.57160  200.00000    2.15700 5000.00000 5000.00000
 1193400.00000    0.02100   85.72780  150.21690   21.69600    0.20340    2.64680  200.00000    2.17200 5000.00000 5000.00000
 1193460.00000    0.02800   87.42260  148.65230   20.17390    0.17620    2.73410  200.00000    2.19250 5000.00000 5000.00000
 1193520.00000    0.03370   90.71850  147.48351   19.26240    0.18320    2.85480  200.00000    2.21190   94.91360 5000.00000
 1193580.00000    0.03190   91.92430  147.41479   17.90180    0.19570    2.98950  200.00000    2.22620   57.78870 5000.00000
 1193640.00000    0.03100   91.65070  147.53410   17.10090    0.18120    3.23520  200.00000    2.23750   54.81750 5000.00000
 1193700.00000    0.02820   87.67720  144.12379   17.33010    0.18000    3.44970  200.00000    2.25120   47.82580 5000.00000
 1193760.00000    0.02740   83.19320  142.02420   18.01320    0.18670    3.61150  200.00000    2.26940   44.64900 1120.59497
 1193820.00000    0.02480   83.00430  141.80510   17.81040    0.18350    3.77970  200.00000    2.28290   43.20940  325.08951
 1193880.00000    0.02120   82.42960  141.94490   18.34740    0.18420    3.88950   91.89730    2.28920   43.05880  180.31129
 1193940.00000    0.02460   82.85970  140.81531   18.80700    0.19320    3.96090   64.97480    2.29530   40.29090  132.11800
 1194000.00000    0.02530   85.72050  139.50031   19.36820    0.17560    4.02490   57.49010    2.30640   41.88080  126.94360
 1194060.00000    0.02160   85.53150  140.09970   20.81620    0.18570    3.97110   45.24710    2.30660   40.78100   67.27380
 1194120.00000    0.01510   84.51260  140.55029   20.78220    0.20030    3.73240   42.13530    2.29750   40.93040   73.88480
 1194180.00000    0.00680   83.63890  141.56371   22.08510    0.17660    3.35090   41.24880    2.26820   43.41010   80.98080
 1194240.00000    0.00860   86.83810  143.29790   21.34260    0.17630    2.99220   47.04740    2.23680   48.56870   88.25450
 1194300.00000    0.01480   87.50660  145.28729   21.13620    0.19480    2.77720   44.85900    2.21590   48.56770   73.50440
 1194360.00000    0.01730   84.06130  146.46429   19.10810    0.18370    2.80410   54.58330    2.20820   70.48350  195.66991
 1194420.00000    0.01920   82.27440  146.57840   18.20760    0.18320    2.85520   64.24120    2.21790   59.71070 5000.00000
 1194480.00000    0.03480   83.44220  146.24370   19.00270    0.19000    2.95970  114.46600    2.26170   46.58600 5000.00000
 1194540.00000    0.03920   86.34450  145.25020   20.20670    0.19720    3.42310   72.96220    2.30160   66.75100 5000.00000
 1194600.00000    0.02520   84.96100  144.00140   20.70400    0.19700    3.89550   69.54620    2.31260   68.15430  312.75751
 1194660.00000    0.00130   79.91860  143.00771   19.26600    0.19230    3.88340  174.03149    2.27240   34.28470   53.39930
 1194720.00000   -0.00250   79.51030  143.43190   18.89300    0.18600    3.16580   63.43000    2.23680   37.56590   72.57820
 1194780.00000    0.01310   80.44390  142.62669   18.02590    0.19060    2.73070   36.83710    2.23340   38.88660  111.12370
 1194840.00000    0.01850   79.31920  142.55920   18.86040    0.18230    2.80900   22.48130    2.24470   38.99230  125.72830
 1194900.00000    0.02190   76.98730  142.49181   19.50710    0.19660    2.89400   18.81740    2.25470   44.27040   43.17120
 1194960.00000    0.02410   74.35390  142.86700   21.95990    0.17120    2.89980   19.95680    2.25610  120.23370   61.85190
 1195020.00000    0.02390   74.72880  143.55740   25.35710    0.17150    2.84130   24.34090    2.25390   88.17910  374.61600
 1195080.00000    0.02690   74.07020  143.12520   29.01240    0.16950    2.93760   28.77270    2.27000   35.92350 5000.00000
 1195140.00000    0.03050   74.92860  146.07550   32.61150    0.17230    3.30250   18.12590    2.33030    8.66090   67.31360
 1195200.00000   -0.01020   76.65420  148.92599   35.59730    0.18880    4.41830   12.83530    2.35570    7.04440   12.69520
 1195260.00000   -0.00270   77.55600  147.93750   41.26330    0.18440    4.71190   15.08740    2.41830    5.28490    4.12440
 1195320.00000   -0.00640   77.21050  143.43781   43.93550    0.18970    4.56960   10.23780    2.37380    9.66870   18.09120
 1195380.00000    0.02880   76.27510  141.18941   43.38760    0.18750    3.78000   11.25280    2.35370   11.78180   19.07400
 1195440.00000    0.03190   76.68150  141.34801   41.44230    0.20220    3.69180   11.00830    2.28730   14.89540   26.21340
 1195500.00000    0.03740   76.11360  141.76961   43.01150    0.19790    3.73130   11.87170    2.25160   12.35760   18.70650
 1195560.00000    0.05070   75.41360  141.98120   46.54140    0.19490    3.64700   17.41090    2.25380    9.49230    5.34460
 1195620.00000    0.04870   75.89870  142.54330   46.73510    0.19050    3.76100   12.18950    2.27380    8.42850    4.45750
 1195680.00000    0.04720   76.07440  143.09850   46.27060    0.19480    3.70100   12.22640    2.30460   10.64140   21.11990
 1195740.00000    0.05060   75.55660  145.52600   46.83440    0.19340    3.52020   13.44540    2.31830   12.11430   37.41270
 1195800.00000    0.05420   75.18370  147.62360   49.12440    0.20550    3.30960   15.18110    2.33020   14.65500   21.70300
 1195860.00000    0.06300   74.07250  147.00481   50.84040    0.19540    3.42310   13.19610    2.39280   17.36650    9.09450
 1195920.00000    0.05650   73.02390  148.33960   52.01970    0.18010    4.05170   10.50610    2.50460   32.39790    7.07830
 1195980.00000    0.03250   72.73410  148.31531   53.29720    0.17980    5.22120   13.83080    2.63670  107.66510   16.65530
 1196040.00000   -0.01210   74.38390  149.08450   52.76050    0.19440    6.38560   26.96400    2.69580  160.89670   37.11230
 1196100.00000   -0.01130   75.54880  150.02490   53.72000    0.19060    6.19140   25.51420    2.68410  170.19510   46.18620
 1196160.00000   -0.00280   75.16860  150.19930   55.86690    0.20400    5.31280   23.93740    2.62230 5000.00000   26.56420
 1196220.00000    0.01470   74.15750  150.46159   58.91690    0.19740    4.58810   28.13940    2.58850 5000.00000   90.27240
 1196280.00000    0.02020   70.43700  150.79480   61.41570    0.20040    4.71890   58.88370    2.57440 5000.00000  218.42680
