~Version ---------------------------------------------------
VERS.   2.0 : CWLS log ASCII Standard -VERSION 2.0
WRAP.    NO : One line per depth step
DLM . SPACE : Column Data Section Delimiter
~Well ------------------------------------------------------
STRT.0.1 in          67920.00000 : START DEPTH
STOP.0.1 in        1476300.00000 : STOP DEPTH
STEP.0.1 in             60.00000 : STEP
NULL.                    -999.25 : NULL VALUE
COMP.               STATOILHYDRO : COMPANY
WELL.                  15/9-F-14 : WELL
FLD .                      VOLVE : FIELD
LOC .                            : LOCATION
PROV.                            : PROVINCE
CNTY.                            : COUNTY
STAT.                            : STATE
CTRY.                            : COUNTRY
SRVC.    CROCKER DATA PROCESSING : SERVICE COMPANY
DATE. 2009-02-18 14:31:44.282000 : DATE
UWI .                            : UNIQUE WELL ID
API .                            : API NUMBER
~Curve Information -----------------------------------------
DEPTH.0.1 in       : Measured Depth
DRHO .g/cm3        : DRHO:UNKNOWN:rC:NONE:v1
DT   .us/ft        : DT:UNKNOWN:rC:NONE:v2
DTS  .us/ft        : DTS:UNKNOWN:rC:NONE:v1
GR   .API          : GR:UNKNOWN:rC:NONE:v1
NPHI .v/v_decimal  : NPHI:UNKNOWN:rC:NONE:v1
PEF  .b/elec       : PEF:UNKNOWN:rC:NONE:v1
RD   .UNKNOWN      : RD:UNKNOWN:rC:NONE:v1
RHOB .g/cm3        : RHOB:UNKNOWN:rC:NONE:v1
RS   .UNKNOWN      : RS:UNKNOWN:rC:NONE:v1
RT   .ohm.m        : RT:UNKNOWN:rC:NONE:v1
~Params ----------------------------------------------------
PROD   .                        PETROLOG : 
PROG   .            ['PETROLOG-TO-DLIS'] : 
RUN    .                              [] : 
DESCENT.                              [] : 
VERSION.                           10.00 : 
LINEAGE.      Python-converted from DLIS : 
ORFILE . WLC_PETRO_COMPUTED_INPUT_1.DLIS : 
~Other -----------------------------------------------------
~ASCII -----------------------------------------------------
# ...
 1319220.00000    0.03560   86.42770  146.40610   35.63460    0.16650    3.15380   33.92650    2.23710   61.04330   60.13300
 1319280.00000    0.03190   87.77950  147.35880   34.13470    0.16730    2.97870   33.29910    2.23100   64.36760   53.64730
 1319340.00000    0.02640   87.23860  148.08510   34.59930    0.16150    2.74610   33.74560    2.23150   61.25940   54.39430
 1319400.00000    0.01680   87.54260  148.92059   36.17480    0.15940    2.51270   32.97660    2.22800   60.49430   60.15650
 1319460.00000    0.01290   87.97690  149.81700   39.37990    0.16980    2.44670   34.02060    2.23030   57.22690   71.37680
 1319520.00000    0.01330   88.13350  150.23990   41.00030    0.17000    2.46220   34.20880    2.23400   52.15470   72.55340
 1319580.00000    0.01480   88.57560  150.66000   43.03580    0.17690    2.55940   34.50890    2.24040   51.28280   71.78500
 1319640.00000    0.01460   88.50300  150.68941   43.37460    0.17130    2.61680   32.64950    2.23720   46.40540   57.15540
 1319700.00000    0.01690   89.70100  150.02380   43.15760    0.16930    2.68950   33.07650    2.23030   45.43730   51.63410
 1319760.00000    0.02050   91.13740  150.55949   43.47330    0.18790    2.68610   33.93620    2.22070   41.38040   49.59230
 1319820.00000    0.02120   92.51450  151.90289   44.16170    0.18310    2.68760   33.22330    2.21210   40.09030   48.80110
 1319880.00000    0.01790   92.36640  152.83290   45.41740    0.19270    2.68380   33.06000    2.20230   37.62530   49.97750
 1319940.00000    0.01550   91.25720  153.16840   46.62820    0.19110    2.69910   33.24700    2.19640   33.70540   58.97920
 1320000.00000    0.02030   89.13330  152.88940   47.81890    0.19490    2.71330   33.32490    2.20010   33.00410   54.94920
 1320060.00000    0.02270   88.91340  152.69600   48.94700    0.18870    2.72360   32.35260    2.20180   31.51350   52.08360
 1320120.00000    0.02420   89.97100  152.71890   48.42430    0.19820    2.73410   31.62120    2.20450   28.67670   45.98650
 1320180.00000    0.02100   90.21710  153.06390   48.33730    0.21650    2.79360   31.43500    2.20270   26.96480   43.62630
 1320240.00000    0.02390   90.49640  152.75391   48.72530    0.19410    2.80530   32.07860    2.21120   25.86070   42.94720
 1320300.00000    0.02650   90.96390  152.66319   48.73490    0.19360    2.88450   31.21480    2.22240   23.09290   41.76460
 1320360.00000    0.02630   91.08660  153.06050   49.57530    0.20900    3.05290   31.85830    2.22450   21.99680   41.96450
 1320420.00000    0.02860   90.69240  153.73480   50.70780    0.20050    3.42060   31.61490    2.21760   21.51750   32.13280
 1320480.00000    0.03970   90.16780  154.71809   51.61770    0.20680    3.82460   32.70260    2.21010   22.14380   38.81430
 1320540.00000    0.04450   90.16780  154.89059   50.37690    0.20250    3.88640   31.77010    2.20410   21.35620   39.43300
 1320600.00000    0.03970   90.76010  154.53931   49.19140    0.20260    3.60720   30.71130    2.19940   20.50350   33.73140
 1320660.00000    0.02710   92.28460  154.30000   49.57150    0.19830    3.28040   31.91180    2.19420   21.39170   35.86140
 1320720.00000    0.02400   92.10410  155.15230   50.34750    0.20790    3.13610   31.67740    2.19980   21.77750   35.24410
 1320780.00000    0.02350   91.47590  155.15520   50.62550    0.20220    3.18880   29.52120    2.20520   21.96890   30.42830
 1320840.00000    0.02530   90.97980  154.80330   50.81140    0.20920    3.22410   33.07670    2.21180   19.94240   27.37140
 1320900.00000    0.02410   93.64380  154.49339   51.88880    0.21310    3.24770   30.82270    2.21350   21.07630   25.14130
 1320960.00000    0.02340   94.83910  154.24260   53.30330    0.20510    3.21120   33.06160    2.21270   20.69180   25.34260
 1321020.00000    0.01840   94.48330  154.39771   54.59910    0.19690    3.14810   29.84550    2.20770   20.86710   23.71220
 1321080.00000    0.01640   93.46500  154.24879   54.55200    0.19580    3.03570   29.12160    2.21040   17.42680   21.69860
 1321140.00000    0.01890   92.20280  154.43460   53.54600    0.20170    3.04060   34.96410    2.23130   15.64280   17.39840
 1321200.00000    0.02160   91.29740  155.42480   53.80150    0.19680    3.11110   41.42090    2.25660   13.85440   15.28060
 1321260.00000    0.02150   88.71590  156.99670   54.66080    0.18810    3.15260   35.29660    2.28070   14.70780   18.65510
 1321320.00000    0.01800   88.73070  158.68221   55.81420    0.19240    3.08260   31.36430    2.28820   15.30210   20.54330
 1321380.00000    0.01810   87.69840  158.22290   55.82680    0.18530    2.96930   27.40950    2.30080   15.19110   20.96550
 1321440.00000    0.01630   87.40080  156.81940   56.18200    0.18450    2.87200   25.90160    2.30400   15.78390   23.45130
 1321500.00000    0.01860   85.49880  155.47549   54.60680    0.18130    2.79710   24.52770    2.31050   16.04050   27.55220
 1321560.00000    0.01620   85.52140  155.22560   52.04980    0.17850    2.68020   24.35980    2.29690   16.84700   33.44540
 1321620.00000    0.01750   86.14130  153.35570   48.28070    0.18430    2.66240   24.75490    2.28290   18.56560   34.08670
 1321680.00000    0.01040   86.91120  154.14050   47.13720    0.18650    2.65990   23.54250    2.26440   20.59370   28.11430
 1321740.00000    0.01220   88.49920  153.23540   47.42580    0.18800    2.73190   24.56450    2.26300   22.71570   39.18450
 1321800.00000    0.01080   88.99250  152.88409   48.05540    0.18370    2.73160   24.10430    2.26750   22.24000   36.66110
 1321860.00000    0.01500   88.79340  152.59320   47.48800    0.19130    2.74280   22.46140    2.27600   21.74730   31.58330
 1321920.00000    0.01030   88.64120  151.52950   46.45440    0.18260    2.74270   22.93430    2.27750   22.67390   35.15280
 1321980.00000    0.00610   88.60170  150.70370   46.00650    0.18460    2.76290   22.66700    2.27550   23.60450   31.70260
 1322040.00000    0.00250   88.63060  150.63380   45.66940    0.18440    2.77330   22.86280    2.27630   26.76740   33.30960
 1322100.00000    0.00270   86.51020  151.08240   46.16730    0.19470    2.89260   23.81160    2.28190   27.72060   36.33060
 1322160.00000    0.00370   88.22230  151.77350   45.27870    0.18030    3.05290   22.11670    2.28650   28.02070   32.94400
 1322220.00000    0.00690   87.51790  151.70720   46.43680    0.18190    3.16070   22.71670    2.29010   31.03470   36.96570
 1322280.00000    0.00840   88.47900  151.48250   46.25010    0.17690    3.19340   22.09430    2.29100   33.83300   36.49750
 1322340.00000    0.00920   90.20940  151.12860   47.11380    0.18990    3.16210   22.60720    2.29740   33.69420   37.07670
 1322400.00000    0.01390   90.15790  150.55290   47.97460    0.18050    3.27210   21.88270    2.30690   32.19870   37.57870
 1322460.00000    0.01890   88.62560  150.45200   48.65280    0.18270    3.33870   23.28010    2.31680   31.17370   46.14110
 1322520.00000    0.02780   88.61580  150.86819   50.07050    0.17900    3.35350   24.52470    2.32030   31.97020   47.38330
 1322580.00000    0.01830   86.72810  151.63950   50.67100    0.18580    3.22090   24.24010    2.31340   33.71530   43.53210
 1322640.00000    0.00980   85.86540  152.81250   51.59560    0.18000    2.98960   23.79700    2.30460   36.28180   41.31850
 1322700.00000    0.00610   87.76310  154.69710   51.49880    0.17440    2.93560   24.38910    2.30120   34.11810   46.66450
 1322760.00000    0.00360   87.71410  156.12450   50.73790    0.18970    3.14530   23.72420    2.29750   31.74280   41.90580
 1322820.00000    0.01230   89.81450  156.42540   49.91820    0.18730    3.48540   22.71540    2.30920   30.99830   38.79110
 1322880.00000    0.01470   89.85740  156.45110   49.71570    0.18040    3.71770   22.99800    2.31340   32.02890   37.54670
 1322940.00000    0.02760   90.60690  155.72099   50.39710    0.18310    3.68410   24.04110    2.32050   31.02680   43.07540
 1323000.00000    0.03070   87.85390  154.26160   50.97660    0.18640    3.64580   24.90830    2.32080   33.39390   46.01070
