~Version ---------------------------------------------------
VERS.   2.0 : CWLS log ASCII Standard -VERSION 2.0
WRAP.    NO : One line per depth step
DLM . SPACE : Column Data Section Delimiter
~Well ------------------------------------------------------
STRT.0.1 in          67920.00000 : START DEPTH
STOP.0.1 in        1476300.00000 : STOP DEPTH
STEP.0.1 in             60.00000 : STEP
NULL.                    -999.25 : NULL VALUE
COMP.               STATOILHYDRO : COMPANY
WELL.                  15/9-F-14 : WELL
FLD .                      VOLVE : FIELD
LOC .                            : LOCATION
PROV.                            : PROVINCE
CNTY.                            : COUNTY
STAT.                            : STATE
CTRY.                            : COUNTRY
SRVC.    CROCKER DATA PROCESSING : SERVICE COMPANY
DATE. 2009-02-18 14:31:44.282000 : DATE
UWI .                            : UNIQUE WELL ID
API .                            : API NUMBER
~Curve Information -----------------------------------------
DEPTH.0.1 in       : Measured Depth
DRHO .g/cm3        : DRHO:UNKNOWN:rC:NONE:v1
DT   .us/ft        : DT:UNKNOWN:rC:NONE:v2
DTS  .us/ft        : DTS:UNKNOWN:rC:NONE:v1
GR   .API          : GR:UNKNOWN:rC:NONE:v1
NPHI .v/v_decimal  : NPHI:UNKNOWN:rC:NONE:v1
PEF  .b/elec       : PEF:UNKNOWN:rC:NONE:v1
RD   .UNKNOWN      : RD:UNKNOWN:rC:NONE:v1
RHOB .g/cm3        : RHOB:UNKNOWN:rC:NONE:v1
RS   .UNKNOWN      : RS:UNKNOWN:rC:NONE:v1
RT   .ohm.m        : RT:UNKNOWN:rC:NONE:v1
~Params ----------------------------------------------------
PROD   .                        PETROLOG : 
PROG   .            ['PETROLOG-TO-DLIS'] : 
RUN    .                              [] : 
DESCENT.                              [] : 
VERSION.                           10.00 : 
LINEAGE.      Python-converted from DLIS : 
ORFILE . WLC_PETRO_COMPUTED_INPUT_1.DLIS : 
~Other -----------------------------------------------------
~ASCII -----------------------------------------------------
# ...
 1342260.00000    0.03020   90.41600  151.01480   47.33540    0.20430    3.29770   20.41380    2.18980   24.68310   22.16620
 1342320.00000    0.02470   91.97150  156.61839   48.29890    0.21570    3.15080   20.30490    2.18470   25.41730   22.26300
 1342380.00000    0.02470   90.47950  157.28770   50.45950    0.20830    3.09570   19.97000    2.18580   25.63130   22.31140
 1342440.00000    0.02440   91.03940  158.90450   47.84800    0.22620    3.02680   20.14270    2.18860   25.93220   22.08920
 1342500.00000    0.02920   92.03640  159.70461   46.43800    0.22090    3.05320   19.85390    2.19780   25.68930   22.12910
 1342560.00000    0.02590   89.68340  160.36340   45.16400    0.21470    3.03740   19.96560    2.19530   25.28340   22.56750
 1342620.00000    0.02720   89.99710  160.32790   44.59760    0.21250    3.02690   19.86220    2.19520   25.68370   22.76140
 1342680.00000    0.02750   91.70220  160.15260   44.12760    0.22200    2.99630   19.79860    2.19820   25.29080   22.83590
 1342740.00000    0.02960   91.33200  160.24860   44.10050    0.19950    2.97090   19.96620    2.21880   24.73930   22.91730
 1342800.00000    0.02940   90.12620  157.64130   45.46490    0.19760    2.98020   20.30150    2.24430   24.20020   23.11120
 1342860.00000    0.02710   89.53600  150.69820   47.76440    0.20880    3.02790   20.69520    2.27120   22.99080   23.37250
 1342920.00000    0.02530   89.51130  147.89909   47.26700    0.19770    3.09330   20.52710    2.28870   22.59690   22.57780
 1342980.00000    0.02190   87.79220  149.79610   46.12670    0.18350    3.18420   20.78190    2.29200   22.41650   22.10730
 1343040.00000    0.02120   83.07760  149.63750   44.61010    0.18610    3.21480   20.90270    2.29210   22.52050   22.22670
 1343100.00000    0.02180   82.59530  149.11470   44.70370    0.19510    3.23010   21.31000    2.29530   22.46160   22.87570
 1343160.00000    0.02830   84.24530  148.73480   45.94510    0.19560    3.19470   21.44960    2.30730   22.15180   22.79300
 1343220.00000    0.03010   85.74450  148.46100   46.56210    0.18910    3.19060   21.23760    2.30560   22.04010   22.38750
 1343280.00000    0.03000   84.57880  148.35339   46.74590    0.19450    3.15760   21.57000    2.29950   21.73670   22.34070
 1343340.00000    0.02820   83.17630  147.99240   45.99380    0.19670    3.17280   21.75700    2.29690   21.66430   22.41370
 1343400.00000    0.02460   83.25250  148.68170   46.63300    0.18690    3.20320   22.01250    2.30220   21.51900   22.90490
 1343460.00000    0.02780   85.02310  149.69690   46.88420    0.17940    3.37160   21.55270    2.31320   21.84060   22.34260
 1343520.00000    0.02890   84.75160  148.82001   47.47960    0.18510    3.50620   21.92430    2.31990   21.85010   22.83210
 1343580.00000    0.03320   84.30170  148.35390   47.19780    0.18720    3.54010   22.00980    2.32610   22.32320   22.94310
 1343640.00000    0.03590   84.48010  147.78270   48.49020    0.18080    3.50710   21.63930    2.33100   21.88070   23.02860
 1343700.00000    0.03440   83.25950  147.46609   49.20600    0.18730    3.49270   22.05430    2.32530   22.37560   22.67650
 1343760.00000    0.03360   83.45480  147.13220   48.07870    0.18200    3.49720   22.22250    2.32540   22.30890   23.12500
 1343820.00000    0.02570   82.30690  146.70081   46.83380    0.18410    3.41020   21.95800    2.31550   22.20140   23.03810
 1343880.00000    0.02420   82.06930  145.87151   45.38600    0.17970    3.30700   21.94770    2.31590   22.17480   22.74690
 1343940.00000    0.02320   82.85050  145.80901   46.14740    0.18410    3.25000   21.88360    2.31190   21.90950   22.50970
 1344000.00000    0.02660   83.93790  146.24820   46.54320    0.18630    3.13190   21.61730    2.32060   21.51420   22.85100
 1344060.00000    0.02150   81.35420  147.56509   48.49490    0.17470    2.98430   21.88700    2.31770   21.20310   22.55570
 1344120.00000    0.02010   79.89390  149.23260   49.27930    0.18390    2.90140   21.85820    2.32080   20.74130   22.39530
 1344180.00000    0.01340   79.14860  147.79939   48.76170    0.18830    2.92380   22.07600    2.30870   20.34440   21.97500
 1344240.00000    0.02060   79.73100  146.36690   47.95230    0.19100    3.01560   22.27420    2.31240   20.39520   21.60840
 1344300.00000    0.01900   80.15760  145.73450   48.35500    0.19180    3.01960   21.92430    2.30690   20.24700   21.57710
 1344360.00000    0.02240   80.69140  145.68159   48.39740    0.19010    3.04950   22.20920    2.31090   19.97930   21.44430
 1344420.00000    0.01210   81.63490  145.40891   47.22950    0.17910    3.01420   22.04490    2.30350   19.64710   21.48360
 1344480.00000    0.00770   82.49660  145.05760   46.32820    0.17880    2.95500   22.30060    2.30120   19.74020   21.59610
 1344540.00000    0.00270   83.41540  144.95180   47.68090    0.18990    2.84560   22.47350    2.29320   19.57160   21.31970
 1344600.00000    0.01180   84.33490  144.90880   48.58870    0.19670    2.86540   22.20300    2.29600   19.58790   21.25090
 1344660.00000    0.01960   85.06330  145.83200   48.23050    0.18900    2.92660   22.65490    2.28980   19.11100   21.42140
 1344720.00000    0.02400   84.43290  147.02789   47.64840    0.18850    3.00840   22.53020    2.28560   19.34540   21.45320
 1344780.00000    0.01970   85.22050  148.25790   48.64910    0.18710    2.98570   22.76490    2.27870   19.51270   21.44700
 1344840.00000    0.01530   86.18940  148.85629   48.14520    0.20380    2.86810   22.71310    2.27500   19.62530   21.28690
 1344900.00000    0.01340   87.36980  150.17540   47.76530    0.18950    2.76090   22.91240    2.26670   19.56290   21.46750
 1344960.00000    0.01430   87.24640  151.51950   46.97350    0.19330    2.69040   22.65420    2.25510   19.69930   21.53170
 1345020.00000    0.01370   86.96790  151.49220   49.21910    0.19060    2.67760   22.60980    2.24550   19.70450   21.55680
 1345080.00000    0.01040   86.45730  150.70290   48.83490    0.20400    2.70610   23.09470    2.23450   19.95730   21.68430
 1345140.00000    0.00790   84.82630  150.88890   48.59510    0.18770    2.71930   23.04570    2.23040   20.16560   21.88570
 1345200.00000    0.00750   84.52950  153.04160   46.46190    0.18360    2.78360   22.97140    2.22760   20.28920   22.06090
 1345260.00000    0.01490   83.41540  155.59621   47.74290    0.19530    2.85670   23.27710    2.23570   20.05960   22.16390
 1345320.00000    0.01520   83.71790  158.49960   47.40080    0.21010    2.95360   22.78810    2.23350   20.42540   22.16550
 1345380.00000    0.01940   83.00430  158.52600   48.49950    0.19760    3.01660   23.35540    2.23290   20.76220   22.58850
 1345440.00000    0.02200   83.29340  158.51700   46.45920    0.19520    3.04500   23.14010    2.23030   20.41160   22.53930
 1345500.00000    0.02770   84.79710  157.80859   46.90620    0.20380    3.03140   23.57020    2.23130   20.57240   22.62310
 1345560.00000    0.03410   84.35000  156.35899   46.09210    0.19350    3.03340   23.27200    2.23610   21.00840   22.66940
 1345620.00000    0.03320   84.95960  155.68150   47.27070    0.20550    2.99590   23.34020    2.23570   20.78630   22.46280
 1345680.00000    0.03110   87.51010  154.44189   46.64340    0.19360    2.97820   23.34190    2.23740   21.10980   22.55820
 1345740.00000    0.02790   88.85620  154.23599   47.72310    0.19650    3.00530   23.35480    2.24230   20.90540   22.72750
 1345800.00000    0.02700   89.94570  155.50020   47.38100    0.18940    3.08190   23.08790    2.24690   20.88070   22.76260
 1345860.00000    0.02740   88.63980  153.63710   47.98870    0.19620    3.15040   23.42210    2.24980   20.73410   22.81640
 1345920.00000    0.02650   86.68860  152.79401   47.79470    0.19370    3.16890   23.38630    2.24280   20.81720   22.87470
 1345980.00000    0.02670   86.33540  152.79401   48.26190    0.20120    3.12920   23.07090    2.23430   21.07420   22.82630
 1346040.00000    0.02900   86.28810  153.58730   48.00600    0.20440    3.09830   23.03890    2.22740   20.97510   22.83890
