~Version ---------------------------------------------------
VERS.   2.0 : CWLS log ASCII Standard -VERSION 2.0
WRAP.    NO : One line per depth step
DLM . SPACE : Column Data Section Delimiter
~Well ------------------------------------------------------
STRT.0.1 in             165840.0 : START DEPTH
STOP.0.1 in            1492980.0 : STOP DEPTH
STEP.0.1 in                 60.0 : STEP
NULL.                    -999.25 : NULL VALUE
COMP.                            : COMPANY
WELL.                   15/9-F-5 : WELL
FLD .                      VOLVE : FIELD
LOC .                            : LOCATION
PROV.                            : PROVINCE
CNTY.                            : COUNTY
STAT.                            : STATE
CTRY.                            : COUNTRY
SRVC.    CROCKER DATA PROCESSING : SERVICE COMPANY
DATE. 2009-02-18 14:44:38.068000 : DATE
UWI .                            : UNIQUE WELL ID
API .                            : API NUMBER
~Curve Information -----------------------------------------
DEPTH.0.1 in       : Measured Depth
CALI .inches       : CALI:UNKNOWN:rC:NONE:v1
DRHO .g/cm3        : DRHO:UNKNOWN:rC:NONE:v1
DT   .us/ft        : DT:UNKNOWN:rC:NONE:v1
GR   .API          : GR:UNKNOWN:rC:NONE:v1
NPHI .v/v_decimal  : NPHI:UNKNOWN:rC:NONE:v1
RD   .UNKNOWN      : RD:UNKNOWN:rC:NONE:v1
RHOB .g/cm3        : RHOB:UNKNOWN:rC:NONE:v1
RS   .UNKNOWN      : RS:UNKNOWN:rC:NONE:v1
RT   .ohm.m        : RT:UNKNOWN:rC:NONE:v1
~Params ----------------------------------------------------
PROD   .                        PETROLOG : 
PROG   .            ['PETROLOG-TO-DLIS'] : 
RUN    .                              [] : 
DESCENT.                              [] : 
VERSION.                           10.00 : 
LINEAGE.      Python-converted from DLIS : 
ORFILE . WLC_PETRO_COMPUTED_INPUT_1.DLIS : 
~Other -----------------------------------------------------
~ASCII -----------------------------------------------------
# ...
 1490700.00000 -999.25000    0.05200 -999.25000   60.06300    0.13680 -999.25000    2.37000    2.27500    2.12500
 1490760.00000 -999.25000    0.05200 -999.25000   60.06300    0.13680 -999.25000    2.37000    2.27500    2.12500
 1490820.00000 -999.25000    0.05200 -999.25000   60.06300    0.13680 -999.25000    2.37000    2.27500    2.12500
 1490880.00000 -999.25000    0.05200 -999.25000   60.06300    0.13680 -999.25000    2.37000    2.27500    2.12500
 1490940.00000 -999.25000    0.05200 -999.25000   60.06300    0.13680 -999.25000    2.37000    2.27500    2.12500
 1491000.00000 -999.25000    0.05200 -999.25000   60.06300    0.13680 -999.25000    2.37000    2.27500    2.12500
 1491060.00000 -999.25000    0.05200 -999.25000   60.06300    0.13680 -999.25000    2.37000    2.27500    2.12500
 1491120.00000 -999.25000    0.05200 -999.25000   60.06300    0.13680 -999.25000    2.37000    2.27500    2.12500
 1491180.00000 -999.25000    0.05200 -999.25000   60.06300    0.13680 -999.25000    2.37000    2.27500    2.12500
 1491240.00000 -999.25000    0.05200 -999.25000   60.06300    0.13680 -999.25000    2.37000    2.27500    2.12500
 1491300.00000 -999.25000    0.05200 -999.25000   60.06300    0.13680 -999.25000    2.37000    2.27500    2.12500
 1491360.00000 -999.25000    0.05200 -999.25000   60.06300    0.13680 -999.25000    2.37000    2.27500    2.12500
 1491420.00000 -999.25000    0.05200 -999.25000   60.06300    0.13680 -999.25000    2.37000    2.27500    2.12500
 1491480.00000 -999.25000    0.05200 -999.25000   60.06300    0.13680 -999.25000    2.37000    2.27500    2.12500
 1491540.00000 -999.25000    0.05200 -999.25000   60.06300    0.13680 -999.25000    2.37000    2.27500    2.12500
 1491600.00000 -999.25000    0.05200 -999.25000   60.06300    0.13680 -999.25000    2.37000    2.27500    2.12500
 1491660.00000 -999.25000    0.05200 -999.25000   60.06300    0.13680 -999.25000    2.37000    2.27500    2.12500
 1491720.00000 -999.25000    0.05200 -999.25000   60.06300    0.13680 -999.25000    2.37000    2.27500    2.12500
 1491780.00000 -999.25000    0.05200 -999.25000   60.06300    0.13680 -999.25000    2.37000    2.27500    2.12500
 1491840.00000 -999.25000    0.05200 -999.25000   60.06300    0.13680 -999.25000    2.37000    2.27500    2.12500
 1491900.00000 -999.25000    0.05200 -999.25000   60.06300    0.13680 -999.25000    2.37000    2.27500    2.12500
 1491960.00000 -999.25000    0.05200 -999.25000   60.06300    0.13680 -999.25000    2.37000    2.27500    2.12500
 1492020.00000 -999.25000    0.05200 -999.25000   60.06300    0.13680 -999.25000    2.37000    2.27500    2.12500
 1492080.00000 -999.25000    0.05200 -999.25000   60.06300    0.13680 -999.25000    2.37000    2.27500    2.12500
 1492140.00000 -999.25000    0.05200 -999.25000   60.06300    0.13680 -999.25000    2.37000    2.27500    2.12500
 1492200.00000 -999.25000    0.05200 -999.25000   60.06300    0.13680 -999.25000    2.37000    2.27500    2.12500
 1492260.00000 -999.25000    0.05200 -999.25000   60.06300    0.13680 -999.25000    2.37000    2.27500    2.12500
 1492320.00000 -999.25000    0.05200 -999.25000   60.06300    0.13680 -999.25000    2.37000    2.27500    2.12500
 1492380.00000 -999.25000    0.05200 -999.25000   60.06300    0.13680 -999.25000    2.37000    2.27500    2.12500
 1492440.00000 -999.25000    0.05200 -999.25000   60.06300    0.13680 -999.25000    2.37000    2.27500    2.12500
 1492500.00000 -999.25000    0.05200 -999.25000   60.06300    0.13680 -999.25000    2.37000    2.27500    2.12500
 1492560.00000 -999.25000    0.05200 -999.25000   60.06300    0.13680 -999.25000    2.37000    2.27500    2.12500
 1492620.00000 -999.25000    0.05200 -999.25000   60.06300    0.13680 -999.25000    2.37000    2.27500    2.12500
 1492680.00000 -999.25000    0.05200 -999.25000   60.06300    0.13680 -999.25000    2.37000    2.27500    2.12500
 1492740.00000 -999.25000    0.05200 -999.25000   60.06300    0.13680 -999.25000    2.37000    2.27500    2.12500
 1492800.00000 -999.25000    0.05200 -999.25000   60.06300    0.13680 -999.25000    2.37000    2.27500    2.12500
 1492860.00000 -999.25000    0.05200 -999.25000   60.06300    0.13680 -999.25000    2.37000    2.27500    2.12500
 1492920.00000 -999.25000    0.05200 -999.25000   60.06300    0.13680 -999.25000    2.37000    2.27500    2.12500
 1492980.00000 -999.25000    0.05200 -999.25000   60.06300    0.13680 -999.25000    2.37000    2.27500    2.12500
