~Version ---------------------------------------------------
VERS.   2.0 : CWLS log ASCII Standard -VERSION 2.0
WRAP.    NO : One line per depth step
DLM . SPACE : Column Data Section Delimiter
~Well ------------------------------------------------------
STRT.0.1 in          67920.00000 : START DEPTH
STOP.0.1 in        1476300.00000 : STOP DEPTH
STEP.0.1 in             60.00000 : STEP
NULL.                    -999.25 : NULL VALUE
COMP.               STATOILHYDRO : COMPANY
WELL.                  15/9-F-14 : WELL
FLD .                      VOLVE : FIELD
LOC .                            : LOCATION
PROV.                            : PROVINCE
CNTY.                            : COUNTY
STAT.                            : STATE
CTRY.                            : COUNTRY
SRVC.    CROCKER DATA PROCESSING : SERVICE COMPANY
DATE. 2009-02-18 14:31:44.282000 : DATE
UWI .                            : UNIQUE WELL ID
API .                            : API NUMBER
~Curve Information -----------------------------------------
DEPTH.0.1 in       : Measured Depth
DRHO .g/cm3        : DRHO:UNKNOWN:rC:NONE:v1
DT   .us/ft        : DT:UNKNOWN:rC:NONE:v2
DTS  .us/ft        : DTS:UNKNOWN:rC:NONE:v1
GR   .API          : GR:UNKNOWN:rC:NONE:v1
NPHI .v/v_decimal  : NPHI:UNKNOWN:rC:NONE:v1
PEF  .b/elec       : PEF:UNKNOWN:rC:NONE:v1
RD   .UNKNOWN      : RD:UNKNOWN:rC:NONE:v1
RHOB .g/cm3        : RHOB:UNKNOWN:rC:NONE:v1
RS   .UNKNOWN      : RS:UNKNOWN:rC:NONE:v1
RT   .ohm.m        : RT:UNKNOWN:rC:NONE:v1
~Params ----------------------------------------------------
PROD   .                        PETROLOG : 
PROG   .            ['PETROLOG-TO-DLIS'] : 
RUN    .                              [] : 
DESCENT.                              [] : 
VERSION.                           10.00 : 
LINEAGE.      Python-converted from DLIS : 
ORFILE . WLC_PETRO_COMPUTED_INPUT_1.DLIS : 
~Other -----------------------------------------------------
~ASCII -----------------------------------------------------
# ...
 1442100.00000    0.04410   90.91450  155.18460   38.74770    0.21910    2.94450   11.94540    2.21060   14.27210   13.81950
 1442160.00000    0.03860   90.80740  155.01250   39.00990    0.21600    2.86340   11.84370    2.20290   14.35690   13.88220
 1442220.00000    0.03510   90.29900  153.17101   37.84280    0.21090    2.79830   11.74770    2.20430   14.29290   14.01050
 1442280.00000    0.03910   90.19250  151.95840   36.18960    0.22110    2.83260   11.70050    2.20490   14.15790   13.83550
 1442340.00000    0.04410   89.86320  151.64259   36.52910    0.20980    2.83790   11.55560    2.21460   14.01440   13.78040
 1442400.00000    0.04590   88.83860  152.13519   35.67930    0.20940    2.87650   11.41450    2.21350   14.10120   13.69210
 1442460.00000    0.04150   89.07690  152.38000   37.85650    0.19050    2.81060   11.52830    2.21190   14.22000   13.61100
 1442520.00000    0.04110   89.65940  151.19310   37.89790    0.21570    2.84440   11.43720    2.21120   13.92420   13.49300
 1442580.00000    0.04260   90.01200  150.14740   40.86760    0.22670    2.85020   11.32330    2.21190   13.91250   13.50630
 1442640.00000    0.04870   90.25030  150.58940   38.96980    0.21750    2.90650   11.20780    2.21190   13.76670   13.52240
 1442700.00000    0.04560   90.66000  152.77660   37.98520    0.20380    2.87500   11.14460    2.20730   13.49110   13.47800
 1442760.00000    0.04400   90.47950  153.60130   34.53610    0.22320    2.83420   10.97450    2.20300   13.59940   13.26530
 1442820.00000    0.04030   90.61980  154.78430   34.97360    0.20620    2.76800   10.84160    2.20360   13.36580   13.01930
 1442880.00000    0.04520   91.09650  154.33450   35.46180    0.20310    2.86500   10.61880    2.20970   13.35830   12.54290
 1442940.00000    0.04380   90.44640  156.71111   36.08150    0.20980    2.99390   10.38720    2.21330   13.20100   12.18530
 1443000.00000    0.04820   90.39700  157.18410   35.40950    0.21590    3.09370   10.18770    2.22550   12.58760   12.09190
 1443060.00000    0.04300   90.33780  155.61510   35.07470    0.23700    2.99830   10.09190    2.22400   12.19870   12.00860
 1443120.00000    0.04210   90.80030  155.79050   35.06630    0.20070    2.91730    9.90120    2.22670   11.71230   12.16810
 1443180.00000    0.03990   91.20080  155.77870   37.06170    0.20560    2.88410    9.79590    2.21850   11.22980   12.28690
 1443240.00000    0.04160   90.47170  155.78650   36.56870    0.20500    2.86360    9.65230    2.21860   10.69190   11.78410
 1443300.00000    0.04480   90.72560  157.03120   37.46100    0.20060    2.84970    9.45960    2.21960   10.20170   11.44620
 1443360.00000    0.04030   90.45480  158.16840   39.19890    0.21430    2.79910    9.30320    2.21720    9.85560   10.95110
 1443420.00000    0.03980   90.23340  157.95979   42.06340    0.21800    2.84760    9.20940    2.21700    9.59630   10.84500
 1443480.00000    0.03670   90.48860  158.03300   42.74080    0.21620    2.80700    9.12250    2.21610    9.38660   10.32250
 1443540.00000    0.04040   91.61260  157.50909   41.75680    0.20490    2.77410    9.05590    2.22710    9.32440   10.29440
 1443600.00000    0.03520   92.01320  156.18210   41.62770    0.23400    2.71400    8.86720    2.23030    9.38770   10.21120
 1443660.00000    0.03810   91.11130  154.48100   40.59720    0.21600    2.85240    8.92570    2.24400    9.06550    9.86860
 1443720.00000    0.03550   91.00480  153.54120   40.98630    0.22380    3.01210    8.82560    2.24700    8.80850    9.53950
 1443780.00000    0.04660   91.09500  153.28580   40.33690    0.22350    3.21760    8.79760    2.26580    8.42290    9.03670
 1443840.00000    0.04720   91.11130  152.55600   42.81260    0.20770    3.26190    8.88530    2.27140    7.85260    8.45880
 1443900.00000    0.05170   90.70860  151.92360   44.90460    0.20910    3.24500    8.71390    2.27950    7.20900    8.31210
 1443960.00000    0.04450   89.76520  151.79140   46.89300    0.21370    3.19420    8.63080    2.27360    6.93490    7.99490
 1444020.00000    0.04230   88.80480  150.83459   46.37240    0.22110    3.13320    8.61320    2.27940    6.83050    7.83180
 1444080.00000    0.03780   87.37680  148.18800   45.71910    0.20900    3.15510    8.54680    2.28280    6.58130    7.42560
 1444140.00000    0.03820   86.07300  144.95799   46.89600    0.20260    3.13130    8.30380    2.29300    6.49830    7.24680
 1444200.00000    0.03690   85.47370  143.62531   48.39560    0.20120    3.12770    8.10010    2.29840    6.46860    7.06700
 1444260.00000    0.03820   84.97440  143.59570   47.88490    0.20230    3.04790    7.94060    2.30370    6.44940    7.04770
 1444320.00000    0.04080   85.26850  144.55060   45.96760    0.20720    3.05570    7.80190    2.30610    6.51280    6.97530
 1444380.00000    0.04270   84.43040  146.94740   45.68610    0.20310    3.02490    7.62280    2.30440    6.44020    6.72950
 1444440.00000    0.04260   84.41050  149.86630   45.09990    0.20410    3.09040    7.48680    2.29990    6.41170    6.66750
 1444500.00000    0.03980   84.89700  149.94350   46.33290    0.20160    3.03420    7.35720    2.29840    6.46440    6.58290
 1444560.00000    0.03480   85.60070  150.20160   45.72240    0.19900    3.00430    7.23170    2.28420    6.34430    6.51620
 1444620.00000    0.03340   85.85880  152.54990   46.94810    0.20530    2.92410    7.06420    2.27200    6.38880    6.54240
 1444680.00000    0.03750   85.42640  155.45039   46.64330    0.20750    2.95740    6.95890    2.26230    6.29350    6.48770
 1444740.00000    0.04330   87.35500  157.12000   47.05140    0.21290    3.02030    6.88370    2.26430    6.38620    6.46480
 1444800.00000    0.04580   88.94510  158.11349   47.44200    0.21520    3.11220    6.76980    2.28020    6.34620    6.46140
 1444860.00000    0.04390   89.08540  158.78059   47.22190    0.19580    3.15020    6.69380    2.29760    6.33500    6.45170
 1444920.00000    0.04150   89.80680  158.20869   47.81060    0.20600    3.22070    6.70100    2.30660    6.37610    6.45750
 1444980.00000    0.04380   89.58460  157.19780   48.74000    0.19220    3.37490    6.74810    2.29780    6.21430    6.42600
 1445040.00000    0.05050   88.89570  156.64481   48.51690    0.20470    3.56040    6.74260    2.27950    6.23180    6.35110
 1445100.00000    0.05910   88.55940  157.19940   48.60000    0.19610    3.68700    6.66830    2.27910    6.18870    6.55390
 1445160.00000    0.06650   88.09120  157.92770   46.55640    0.20380    3.86200    6.65620    2.27790    6.27460    6.80930
 1445220.00000    0.06860   87.44380  156.08720   47.57120    0.20670    3.93610    6.54100    2.28220    6.36500    6.62380
 1445280.00000    0.06300   87.39380  152.58321   46.45040    0.19520    3.83610    6.60350    2.27350    6.37340    6.84450
 1445340.00000    0.05320   86.68860  153.08490   46.55900    0.20800    3.58150    6.49900    2.26650    6.50230    6.68150
 1445400.00000    0.04610   86.80430  153.83130   46.21470    0.23090    3.35530    6.51900    2.26270    6.55710    6.74210
 1445460.00000    0.04580   87.70680  153.73460   47.75380    0.20550    3.26130    6.47650    2.26680    6.67600    6.84880
 1445520.00000    0.04320   88.31330  153.47920   49.12110    0.21680    3.11570    6.43250    2.26960    6.77870    7.07550
 1445580.00000    0.04400   88.23150  153.04030   49.10690    0.20980    3.09870    6.46710    2.27010    6.98990    7.10170
 1445640.00000    0.04460   88.18990  153.28661   48.99360    0.21380    3.15900    6.43580    2.26910    6.98000    7.03090
 1445700.00000    0.05800   87.73080  153.35609   48.19330    0.21550    3.47710    6.38720    2.27850    6.99680    6.96330
 1445760.00000    0.06050   87.68150  152.10651   46.84510    0.20740    3.66650    6.37140    2.27170    7.03160    7.08220
 1445820.00000    0.06350   87.50100  149.90950   46.92090    0.20590    3.75770    6.36870    2.26700    7.05470    7.00900
 1445880.00000    0.05680   87.51790  148.74071   47.00840    0.21490    3.69950    6.29820    2.25590    7.04290    6.89210
