~Version ---------------------------------------------------
VERS.   2.0 : CWLS log ASCII Standard -VERSION 2.0
WRAP.    NO : One line per depth step
DLM . SPACE : Column Data Section Delimiter
~Well ------------------------------------------------------
STRT.0.1 in          67920.00000 : START DEPTH
STOP.0.1 in        1476300.00000 : STOP DEPTH
STEP.0.1 in             60.00000 : STEP
NULL.                    -999.25 : NULL VALUE
COMP.               STATOILHYDRO : COMPANY
WELL.                  15/9-F-14 : WELL
FLD .                      VOLVE : FIELD
LOC .                            : LOCATION
PROV.                            : PROVINCE
CNTY.                            : COUNTY
STAT.                            : STATE
CTRY.                            : COUNTRY
SRVC.    CROCKER DATA PROCESSING : SERVICE COMPANY
DATE. 2009-02-18 14:31:44.282000 : DATE
UWI .                            : UNIQUE WELL ID
API .                            : API NUMBER
~Curve Information -----------------------------------------
DEPTH.0.1 in       : Measured Depth
DRHO .g/cm3        : DRHO:UNKNOWN:rC:NONE:v1
DT   .us/ft        : DT:UNKNOWN:rC:NONE:v2
DTS  .us/ft        : DTS:UNKNOWN:rC:NONE:v1
GR   .API          : GR:UNKNOWN:rC:NONE:v1
NPHI .v/v_decimal  : NPHI:UNKNOWN:rC:NONE:v1
PEF  .b/elec       : PEF:UNKNOWN:rC:NONE:v1
RD   .UNKNOWN      : RD:UNKNOWN:rC:NONE:v1
RHOB .g/cm3        : RHOB:UNKNOWN:rC:NONE:v1
RS   .UNKNOWN      : RS:UNKNOWN:rC:NONE:v1
RT   .ohm.m        : RT:UNKNOWN:rC:NONE:v1
~Params ----------------------------------------------------
PROD   .                        PETROLOG : 
PROG   .            ['PETROLOG-TO-DLIS'] : 
RUN    .                              [] : 
DESCENT.                              [] : 
VERSION.                           10.00 : 
LINEAGE.      Python-converted from DLIS : 
ORFILE . WLC_PETRO_COMPUTED_INPUT_1.DLIS : 
~Other -----------------------------------------------------
~ASCII -----------------------------------------------------
# ...
 1142580.00000    0.02040   75.59460  148.79131   42.66390    0.12690    4.60290    3.70490    2.58490    2.57430    2.36120
 1142640.00000    0.03000   74.48620  145.43381   37.24370    0.10620    5.10220    3.68560    2.59330    2.92330    2.98910
 1142700.00000    0.04620   72.71410  142.68150   31.51050    0.10590    5.43080    4.03120    2.61380    3.12680    3.29260
 1142760.00000    0.04880   71.12190  138.82091   28.75170    0.09800    5.56790    4.12310    2.62310    3.84390    4.11100
 1142820.00000    0.04140   68.34650  133.62950   25.62730    0.08830    5.42990    4.24990    2.62650    3.92360    4.14620
 1142880.00000    0.02610   64.11420  128.45860   23.10070    0.07930    5.33350    4.47590    2.61670    4.68200    4.61780
 1142940.00000    0.02380   61.58700  124.37650   21.80860    0.07280    5.31770    4.61140    2.62210    5.33100    5.47720
 1143000.00000    0.02680   59.75080  122.23540   20.08000    0.07080    5.33920    4.83350    2.62790    5.80110    5.91690
 1143060.00000    0.03770   60.02230  121.20910   20.37270    0.06680    5.54680    4.90780    2.64100    6.03070    6.08210
 1143120.00000    0.05150   61.08920  121.06950   18.95310    0.06550    5.88840    5.05910    2.65020    6.40500    6.34400
 1143180.00000    0.05940   62.27880  122.92120   19.31280    0.06210    5.96370    5.22650    2.65590    6.59380    6.53980
 1143240.00000    0.05770   63.19760  123.22870   18.60200    0.06130    5.92900    5.36650    2.65010    6.51710    6.54590
 1143300.00000    0.04950   63.67280  123.48170   19.41040    0.06200    5.71370    5.51460    2.64510    6.56300    6.52090
 1143360.00000    0.03970   64.52890  123.77970   18.86610    0.06250    5.67140    5.55510    2.63560    6.41050    6.50990
 1143420.00000    0.03450   66.65840  123.14680   18.98340    0.06730    5.51550    5.57700    2.63160    6.27660    6.43390
 1143480.00000    0.03650   65.61830  123.05110   18.71860    0.06810    5.53260    5.64100    2.62840    5.81100    6.06510
 1143540.00000    0.03660   66.31500  124.77630   20.20410    0.07010    5.57290    5.66100    2.62380    5.55500    5.76000
 1143600.00000    0.03190   66.10130  127.87790   21.33670    0.06930    5.54070    5.54900    2.62010    5.51880    5.57200
 1143660.00000    0.01700   65.70790  129.06430   22.05350    0.07020    5.35710    5.54190    2.61000    5.38950    5.63840
 1143720.00000    0.01510   65.28830  130.14650   22.18010    0.07240    5.27320    5.36730    2.61620    5.16360    5.51670
 1143780.00000    0.02100   64.17350  132.04530   23.51250    0.07160    5.34620    5.26010    2.62170    5.06270    5.52700
 1143840.00000    0.02990   64.74110  134.13589   24.60450    0.07660    5.42630    5.01340    2.62930    4.93390    4.87660
 1143900.00000    0.03040   66.71830  136.37230   25.79520    0.07880    5.50050    4.93390    2.62160    4.58850    4.81510
 1143960.00000    0.02980   68.11240  137.25169   25.48840    0.08490    5.53460    4.78900    2.61140    4.55820    4.83390
 1144020.00000    0.03180   68.62930  138.14771   25.26150    0.08330    5.52880    4.63260    2.61360    4.31240    4.34300
 1144080.00000    0.02910   68.93250  138.76421   26.56620    0.08990    5.48380    4.60970    2.61680    4.22710    4.14910
 1144140.00000    0.03460   69.13840  139.94960   26.92190    0.09000    5.46250    4.32550    2.62920    4.32620    4.38560
 1144200.00000    0.03970   69.90910  139.68590   29.51940    0.09200    5.54020    4.29800    2.62350    4.08640    4.17160
 1144260.00000    0.05010   70.26240  139.43961   28.57650    0.09820    5.57750    4.31370    2.62080    4.02260    4.00310
 1144320.00000    0.04590   71.07470  139.44940   29.97910    0.09940    5.57960    4.21920    2.60680    3.82780    3.83570
 1144380.00000    0.03790   71.44280  140.19591   29.15910    0.09930    5.43960    4.14840    2.59990    3.84280    3.86050
 1144440.00000    0.02880   70.75390  140.07269   28.99570    0.09800    5.28960    4.16080    2.59670    3.64450    3.88110
 1144500.00000    0.02400   70.51620  139.87930   27.15040    0.09810    5.15650    4.10780    2.59500    3.60610    3.61760
 1144560.00000    0.02180   70.75460  139.28931   26.51180    0.08970    5.18530    4.24930    2.59580    3.65760    3.70870
 1144620.00000    0.02540   70.47320  137.88330   26.24940    0.09430    5.33020    4.07900    2.59710    3.78530    3.73010
 1144680.00000    0.03230   68.55520  137.10960   26.25150    0.09690    5.50200    4.09240    2.60130    3.75560    4.03820
 1144740.00000    0.04180   68.46430  136.52110   25.64700    0.09690    5.62950    4.25180    2.60910    3.90350    3.92060
 1144800.00000    0.04710   68.51570  136.76810   25.97540    0.09450    5.65110    4.14170    2.60880    3.85260    3.83390
 1144860.00000    0.05110   70.61560  137.98151   27.22140    0.09760    5.61920    4.30620    2.61160    3.68340    3.82570
 1144920.00000    0.04740   71.64020  139.04449   28.35520    0.10010    5.55180    4.43810    2.60450    3.73920    3.73950
 1144980.00000    0.04070   71.42660  138.72639   27.02550    0.09460    5.50350    4.41950    2.60440    3.82930    3.79910
 1145040.00000    0.03590   70.61350  136.68660   25.33710    0.09020    5.46250    4.40960    2.60720    3.95790    3.97710
 1145100.00000    0.03600   68.85700  133.57230   23.54350    0.08890    5.35100    4.45910    2.61870    4.20790    4.14960
 1145160.00000    0.04160   66.70780  129.46091   22.14340    0.08100    5.36250    4.49800    2.63230    4.44360    4.39630
 1145220.00000    0.04270   65.62610  128.56480   21.36320    0.07890    5.40250    4.53530    2.63140    4.64980    4.75260
 1145280.00000    0.03700   65.71560  128.71510   20.34750    0.07970    5.42930    4.57520    2.62210    4.68110    4.64840
 1145340.00000    0.02660   65.40460  129.96390   21.74340    0.07910    5.28860    4.66140    2.61050    4.80700    4.76580
 1145400.00000    0.01910   65.97090  131.46680   22.71270    0.08150    5.12390    4.78400    2.61440    4.77350    4.91800
 1145460.00000    0.02040   66.89880  132.39000   24.38660    0.08160    5.09220    4.82200    2.62050    4.72110    4.75170
 1145520.00000    0.02470   68.12020  133.50661   25.53810    0.08100    5.19040    4.85720    2.62670    4.59570    4.79540
 1145580.00000    0.02480   67.95580  133.89120   26.01490    0.08340    5.31450    5.07900    2.62230    4.75210    4.81410
 1145640.00000    0.02500   67.59480  132.51241   26.30340    0.08050    5.43390    5.21890    2.62030    4.81210    4.96620
 1145700.00000    0.02540   67.06100  132.45039   26.02530    0.08220    5.49040    5.11200    2.61980    5.01040    5.21290
 1145760.00000    0.03510   66.43840  132.15199   25.55260    0.08250    5.60870    5.04080    2.62820    5.16680    5.23540
 1145820.00000    0.03690   66.87350  132.16029   24.91850    0.08060    5.61380    5.29310    2.63320    5.07730    5.10040
 1145880.00000    0.04160   66.83890  131.30659   23.65050    0.07800    5.62960    5.30350    2.63910    5.11280    5.20700
 1145940.00000    0.04050   65.70010  129.75999   22.38070    0.07730    5.59920    5.26970    2.63890    5.20180    5.39350
 1146000.00000    0.04230   66.08510  129.06570   21.56100    0.07530    5.62640    5.28970    2.63950    5.14020    5.40060
 1146060.00000    0.03980   65.74030  128.46320   22.37880    0.07010    5.64150    5.25510    2.63770    5.26050    5.32660
 1146120.00000    0.03910   65.22340  127.59750   23.34060    0.07000    5.66280    5.23910    2.64030    5.46680    5.51490
 1146180.00000    0.04620   64.69810  127.25560   25.03860    0.06970    5.72030    5.11150    2.64940    5.37120    5.41890
 1146240.00000    0.05020   64.51900  128.88440   25.36090    0.06890    5.78370    5.13960    2.64880    5.42870    5.61610
 1146300.00000    0.04140   65.93070  132.54030   25.81440    0.08120    5.60990    5.11770    2.63350    5.14820    5.33210
 1146360.00000    0.02730   67.41500  134.80840   25.74080    0.08120    5.40310    5.16370    2.61520    4.89980    4.96290
