~Version ---------------------------------------------------
VERS.   2.0 : CWLS log ASCII Standard -VERSION 2.0
WRAP.    NO : One line per depth step
DLM . SPACE : Column Data Section Delimiter
~Well ------------------------------------------------------
STRT.0.1 in             165840.0 : START DEPTH
STOP.0.1 in            1492980.0 : STOP DEPTH
STEP.0.1 in                 60.0 : STEP
NULL.                    -999.25 : NULL VALUE
COMP.                            : COMPANY
WELL.                   15/9-F-5 : WELL
FLD .                      VOLVE : FIELD
LOC .                            : LOCATION
PROV.                            : PROVINCE
CNTY.                            : COUNTY
STAT.                            : STATE
CTRY.                            : COUNTRY
SRVC.    CROCKER DATA PROCESSING : SERVICE COMPANY
DATE. 2009-02-18 14:44:38.068000 : DATE
UWI .                            : UNIQUE WELL ID
API .                            : API NUMBER
~Curve Information -----------------------------------------
DEPTH.0.1 in       : Measured Depth
CALI .inches       : CALI:UNKNOWN:rC:NONE:v1
DRHO .g/cm3        : DRHO:UNKNOWN:rC:NONE:v1
DT   .us/ft        : DT:UNKNOWN:rC:NONE:v1
GR   .API          : GR:UNKNOWN:rC:NONE:v1
NPHI .v/v_decimal  : NPHI:UNKNOWN:rC:NONE:v1
RD   .UNKNOWN      : RD:UNKNOWN:rC:NONE:v1
RHOB .g/cm3        : RHOB:UNKNOWN:rC:NONE:v1
RS   .UNKNOWN      : RS:UNKNOWN:rC:NONE:v1
RT   .ohm.m        : RT:UNKNOWN:rC:NONE:v1
~Params ----------------------------------------------------
PROD   .                        PETROLOG : 
PROG   .            ['PETROLOG-TO-DLIS'] : 
RUN    .                              [] : 
DESCENT.                              [] : 
VERSION.                           10.00 : 
LINEAGE.      Python-converted from DLIS : 
ORFILE . WLC_PETRO_COMPUTED_INPUT_1.DLIS : 
~Other -----------------------------------------------------
~ASCII -----------------------------------------------------
# ...
 1166940.00000 -999.25000    0.05200   55.47880   10.59400    0.04980 -999.25000    2.65000   11.81800   10.79800
 1167000.00000 -999.25000    0.05600   55.08880    9.79700    0.05010 -999.25000    2.67000   11.29600   10.48000
 1167060.00000 -999.25000    0.04800   54.93840    9.00000    0.04940 -999.25000    2.65000   10.79800   10.32100
 1167120.00000 -999.25000    0.05600   55.31040    9.00000    0.04660 -999.25000    2.68000   10.79800   10.32100
 1167180.00000 -999.25000    0.04000   54.10800    9.00000    0.05230 -999.25000    2.65000   10.32100   10.32100
 1167240.00000 -999.25000    0.01600   55.23140   12.25000    0.06040 -999.25000    2.63000   10.16900   10.32100
 1167300.00000 -999.25000    0.03200   57.96830   11.39100    0.06770 -999.25000    2.63000    9.72000    9.30400
 1167360.00000 -999.25000    0.02800   59.25140   12.25000    0.07160 -999.25000    2.63000    9.01400    8.61600
 1167420.00000 -999.25000    0.02800   58.35970    9.00000    0.07420 -999.25000    2.61000    8.61600    9.01400
 1167480.00000 -999.25000    0.03200   57.25130    9.00000    0.06330 -999.25000    2.61000    8.61600    9.01400
 1167540.00000 -999.25000    0.04800   58.93400   11.39100    0.06610 -999.25000    2.64000    8.61600    8.88100
 1167600.00000 -999.25000    0.05200   62.47870   12.25000    0.06860 -999.25000    2.62000    8.74800    9.15200
 1167660.00000 -999.25000    0.04800   62.47070   12.25000    0.06320 -999.25000    2.61000    7.99300    7.76100
 1167720.00000 -999.25000    0.04000   60.73800   12.25000    0.05140 -999.25000    2.64000    8.76000    8.89300
 1167780.00000 -999.25000    0.04400   62.10000   12.25000    0.05440 -999.25000    2.63000    9.43000    9.43000
 1167840.00000 -999.25000    0.02800   61.48730    9.76600    0.06330 -999.25000    2.60000    9.15200    8.89300
 1167900.00000 -999.25000    0.03200   59.18650    9.76600    0.06840 -999.25000    2.62000    8.61600    8.23500
 1167960.00000 -999.25000    0.04400   59.17440    9.00000    0.06530 -999.25000    2.63000    8.36200    8.36200
 1168020.00000 -999.25000    0.03600   58.54200    9.76600    0.05890 -999.25000    2.62000    8.23500    8.23500
 1168080.00000 -999.25000    0.04800   57.58500    9.00000    0.05770 -999.25000    2.64000    8.61600    9.45600
 1168140.00000 -999.25000    0.04400   58.86010   14.06300    0.05770 -999.25000    2.62000    9.22200   12.09100
 1168200.00000 -999.25000    0.04800   60.48400   14.06300    0.06360 -999.25000    2.64000    6.72300    6.28800
 1168260.00000 -999.25000    0.02800   62.03750   16.00000    0.06030 -999.25000    2.64000    6.57800    6.57800
 1168320.00000 -999.25000    0.03200   61.66770   14.06300    0.06400 -999.25000    2.63000    8.24400    8.62200
 1168380.00000 -999.25000    0.03200   60.35150   16.00000    0.05760 -999.25000    2.64000    7.53200    7.40300
 1168440.00000 -999.25000    0.05200   60.25210   14.06300    0.05290 -999.25000    2.67000    6.88900    5.34300
 1168500.00000 -999.25000    0.04400   61.76850   14.06300    0.04960 -999.25000    2.67000    7.75600    7.54500
 1168560.00000 -999.25000    0.04000   61.55780   13.14100    0.04880 -999.25000    2.66000    7.75600    8.61600
 1168620.00000 -999.25000    0.05200   59.97440   12.25000    0.05330 -999.25000    2.68000    7.19700    7.87200
 1168680.00000 -999.25000    0.00800   60.53130   16.00000    0.08840 -999.25000    2.56000    6.87500    7.76100
 1168740.00000 -999.25000    0.04800   65.24070   26.26600    0.10460 -999.25000    2.60000    4.52500    4.40000
 1168800.00000 -999.25000    0.04000   69.73630   22.56300    0.09660 -999.25000    2.60000    2.78700    2.48900
 1168860.00000 -999.25000    0.01200   64.45790   12.25000    0.07830 -999.25000    2.59000    4.69400    5.50800
 1168920.00000 -999.25000    0.04000   60.29830   11.39100    0.07680 -999.25000    2.59000    4.86400    5.08900
 1168980.00000 -999.25000    0.02800   61.34100    9.76600    0.08900 -999.25000    2.55000    4.57900    4.57900
 1169040.00000 -999.25000    0.05200   61.12090    9.00000    0.09440 -999.25000    2.58000    4.57900    4.37700
 1169100.00000 -999.25000    0.04400   58.33500    6.89100    0.08780 -999.25000    2.59000    4.68500    4.47800
 1169160.00000 -999.25000    0.03600   57.73590    9.76600    0.08080 -999.25000    2.61000    5.12800    5.24300
 1169220.00000 -999.25000    0.04400   60.08880    9.00000    0.07010 -999.25000    2.62000    5.24300    5.24300
 1169280.00000 -999.25000    0.03200   59.78760    9.00000    0.07860 -999.25000    2.59000    5.48500    5.32400
 1169340.00000 -999.25000    0.05200   59.44580    9.00000    0.08060 -999.25000    2.59000    5.24300    5.24300
 1169400.00000 -999.25000    0.05600   60.72000    6.89100    0.08510 -999.25000    2.62000    5.24300    5.24300
 1169460.00000 -999.25000    0.04000   59.47550    8.26600    0.08960 -999.25000    2.58000    5.01200    5.01200
 1169520.00000 -999.25000    0.02400   57.75990    9.00000    0.08820 -999.25000    2.57000    5.01200    5.01200
 1169580.00000 -999.25000    0.04800   58.43010    9.76600    0.08690 -999.25000    2.60000    5.01200    5.01200
 1169640.00000 -999.25000    0.04400   60.48360   11.39100    0.08330 -999.25000    2.59000    4.90150    4.90150
 1169700.00000 -999.25000    0.04000   61.30250   11.39100    0.07960 -999.25000    2.59000    4.79100    4.79100
 1169760.00000 -999.25000    0.03200   61.65980    9.00000    0.08210 -999.25000    2.61000    5.01200    4.79100
 1169820.00000 -999.25000    0.05200   62.13030   12.25000    0.08450 -999.25000    2.61000    5.12750    4.90150
 1169880.00000 -999.25000    0.00800   61.83330    9.76600    0.08400 -999.25000    2.55000    5.24300    5.01200
 1169940.00000 -999.25000    0.04800   61.35810    9.00000    0.08360 -999.25000    2.60000    5.24300    5.12750
 1170000.00000 -999.25000    0.05600   61.48670   11.39100    0.08130 -999.25000    2.61000    5.24300    5.24300
 1170060.00000 -999.25000    0.04000   61.44300    9.00000    0.07900 -999.25000    2.59000    5.32370    5.24300
 1170120.00000 -999.25000    0.04400   60.95030    8.26600    0.08230 -999.25000    2.58000    5.40430    5.24300
 1170180.00000 -999.25000    0.05200   60.91610    8.26600    0.08570 -999.25000    2.58000    5.48500    5.24300
 1170240.00000 -999.25000    0.05000   62.55960    9.00000    0.09290 -999.25000    2.56000    5.13800    5.01700
 1170300.00000 -999.25000    0.04800   62.59740    6.89100    0.10020 -999.25000    2.54000    4.79100    4.79100
 1170360.00000 -999.25000    0.04800   60.97390    9.00000    0.09990 -999.25000    2.54500    4.39500    4.48750
 1170420.00000 -999.25000    0.04800   60.40050    8.26600    0.09960 -999.25000    2.55000    3.99900    4.18400
 1170480.00000 -999.25000    0.05600   61.50110    9.76600    0.10240 -999.25000    2.59000    3.91100    4.09150
 1170540.00000 -999.25000    0.04600   62.04740    9.00000    0.10530 -999.25000    2.55500    3.82300    3.99900
 1170600.00000 -999.25000    0.03600   62.01830    9.00000    0.10810 -999.25000    2.52000    3.65800    3.82650
 1170660.00000 -999.25000    0.05000   61.79640    8.63300    0.11370 -999.25000    2.51500    3.49300    3.65400
 1170720.00000 -999.25000    0.06400   62.21090    8.26600    0.11920 -999.25000    2.51000    3.49300    3.57350
 1170780.00000 -999.25000    0.06000   63.05070    8.63300    0.11790 -999.25000    2.52330    3.49300    3.49300
 1170840.00000 -999.25000    0.05600   62.25610    9.00000    0.11650 -999.25000    2.53670    3.49300    3.49300
 1170900.00000 -999.25000    0.05200   61.09920    8.63300    0.11120 -999.25000    2.55000    3.49300    3.49300
 1170960.00000 -999.25000    0.05600   61.11880    8.26600    0.10590 -999.25000    2.56500    3.49300    3.49300
 1171020.00000 -999.25000    0.06000   62.53080    8.63300    0.10370 -999.25000    2.58000    3.49300    3.57350
 1171080.00000 -999.25000    0.05200   64.03530    9.00000    0.10140 -999.25000    2.56000    3.49300    3.65400
 1171140.00000 -999.25000    0.04400   63.61640   10.19550    0.10400 -999.25000    2.54000    3.49300    3.57350
