~Version ---------------------------------------------------
VERS.   2.0 : CWLS log ASCII Standard -VERSION 2.0
WRAP.    NO : One line per depth step
DLM . SPACE : Column Data Section Delimiter
~Well ------------------------------------------------------
STRT.0.1 in             165840.0 : START DEPTH
STOP.0.1 in            1492980.0 : STOP DEPTH
STEP.0.1 in                 60.0 : STEP
NULL.                    -999.25 : NULL VALUE
COMP.                            : COMPANY
WELL.                   15/9-F-5 : WELL
FLD .                      VOLVE : FIELD
LOC .                            : LOCATION
PROV.                            : PROVINCE
CNTY.                            : COUNTY
STAT.                            : STATE
CTRY.                            : COUNTRY
SRVC.    CROCKER DATA PROCESSING : SERVICE COMPANY
DATE. 2009-02-18 14:44:38.068000 : DATE
UWI .                            : UNIQUE WELL ID
API .                            : API NUMBER
~Curve Information -----------------------------------------
DEPTH.0.1 in       : Measured Depth
CALI .inches       : CALI:UNKNOWN:rC:NONE:v1
DRHO .g/cm3        : DRHO:UNKNOWN:rC:NONE:v1
DT   .us/ft        : DT:UNKNOWN:rC:NONE:v1
GR   .API          : GR:UNKNOWN:rC:NONE:v1
NPHI .v/v_decimal  : NPHI:UNKNOWN:rC:NONE:v1
RD   .UNKNOWN      : RD:UNKNOWN:rC:NONE:v1
RHOB .g/cm3        : RHOB:UNKNOWN:rC:NONE:v1
RS   .UNKNOWN      : RS:UNKNOWN:rC:NONE:v1
RT   .ohm.m        : RT:UNKNOWN:rC:NONE:v1
~Params ----------------------------------------------------
PROD   .                        PETROLOG : 
PROG   .            ['PETROLOG-TO-DLIS'] : 
RUN    .                              [] : 
DESCENT.                              [] : 
VERSION.                           10.00 : 
LINEAGE.      Python-converted from DLIS : 
ORFILE . WLC_PETRO_COMPUTED_INPUT_1.DLIS : 
~Other -----------------------------------------------------
~ASCII -----------------------------------------------------
# ...
 1465140.00000    8.57050    0.05050   66.99480   39.68890    0.10770    1.84220    2.69080    2.62020    2.98780
 1465200.00000    8.53060    0.06970   71.03700   35.05960    0.10510    1.71180    2.63080    1.95880    2.24010
 1465260.00000    8.53000    0.05000   73.04500   31.62000    0.10830    1.38000    2.55000    1.52000    1.73000
 1465320.00000    8.51980    0.05020   74.45660   29.69960    0.11430    1.23760    2.45910    1.09560    1.17390
 1465380.00000    8.51030    0.05970   75.26510   27.49930    0.13730    1.11390    2.41150    0.85750    0.84050
 1465440.00000    8.49030    0.05020   75.21130   26.54440    0.16100    0.94270    2.39030    0.69260    0.63320
 1465500.00000    8.50000    0.07000   75.01530   25.27000    0.16990    0.67000    2.39000    0.58000    0.52000
 1465560.00000    8.51950    0.08000   74.29400   24.26300    0.16590    0.56940    2.40000    0.50970    0.52000
 1465620.00000    8.48970    0.07970   73.68370   21.32920    0.16890    0.52820    2.39940    0.49060    0.51910
 1465680.00000    8.48020    0.07020   73.85690   20.03380    0.17360    0.47110    2.38040    0.50960    0.49050
 1465740.00000    8.48000    0.05000   74.20390   17.56000    0.17400    0.48000    2.36000    0.51000    0.45000
 1465800.00000    8.48040    0.04990   74.47250   19.82160    0.17220    0.45960    2.36000    0.50030    0.45030
 1465860.00000    8.50950    0.04060   76.26900   20.74240    0.17670    0.43000    2.36080    0.52030    0.47060
 1465920.00000    8.49040    0.05960   74.83500   22.90460    0.17060    0.43000    2.38940    0.52980    0.48960
 1465980.00000    8.49000    0.05010   75.32890   23.78550    0.17630    0.47000    2.39000    0.60960    0.53970
 1466040.00000    8.48000    0.03990   76.90150   25.71200    0.18350    0.49000    2.37980    0.63970    0.53020
 1466100.00000    8.48130    0.03020   78.05450   25.88030    0.18670    0.58100    2.35980    0.60930    0.54970
 1466160.00000    8.52890    0.03980   78.76830   25.12780    0.18010    0.61910    2.35020    0.58070    0.54020
 1466220.00000    8.52000    0.04990   76.29630   25.14970    0.17370    0.68000    2.36980    0.54030    0.51020
 1466280.00000    8.51000    0.04990   72.62860   24.73020    0.18340    0.63000    2.38010    0.49950    0.54030
 1466340.00000    8.50000    0.03950   72.47990   23.44920    0.17270    0.59200    2.38950    0.43980    0.57780
 1466400.00000    8.50000    0.02050   73.61740   20.87750    0.17050    0.67780    2.37050    0.43020    0.48250
 1466460.00000    8.51000    0.02990   74.43100   19.58320    0.17590    1.07000    2.36010    0.42010    0.38110
 1466520.00000    8.51000    0.03010   74.22550   19.89780    0.17240    1.20000    2.37020    0.46050    0.57260
 1466580.00000    8.52020    0.04000   74.32530   21.41620    0.16180    1.41350    2.40000    0.55140    1.06160
 1466640.00000    8.52970    0.04000   73.34070   24.56900    0.16690    1.58500    2.40000    0.61810    1.61410
 1466700.00000    8.52000    0.04990   74.90860   27.70880    0.17270    1.91000    2.40990    0.74830    1.48200
 1466760.00000    8.51000    0.05000   75.76630   30.92000    0.17450    2.31000    2.41000    0.73000    1.83000
 1466820.00000    8.52040    0.04960   75.88290   32.52380    0.17390    2.16110    2.43020    0.79840    1.87560
 1466880.00000    8.53940    0.03060   76.85720   32.73340    0.16590    2.21820    2.43970    0.71270    2.72330
 1466940.00000    8.52030    0.03980   77.09720   32.27750    0.17590    2.45610    2.44980    0.66080    2.07100
 1467000.00000    8.52000    0.03000   77.39670   29.26000    0.18760    2.33000    2.41000    0.57000    1.38000
 1467060.00000    8.48020    0.05020   78.62670   27.26300    0.19040    2.41250    2.37000    0.57290    1.11100
 1467120.00000    8.49000    0.06030   81.58980   25.68550    0.21230    2.58960    2.37090    0.76050    1.19640
 1467180.00000    8.49000    0.06980   79.03910   28.40010    0.19990    3.20910    2.39950    1.09390    2.03460
 1467240.00000    8.50000    0.07000   76.81450   29.61000    0.20860    2.98000    2.44000    1.73000    2.88000
 1467300.00000    8.50000    0.07990   75.03990   33.34250    0.20670    3.55000    2.46050    2.72490    3.10250
 1467360.00000    8.50970    0.06970   71.47520   39.75690    0.19950    4.81650    2.50080    4.69710    4.03280
 1467420.00000    8.50020    0.06020   67.55580   50.38680    0.20880    4.69260    2.52940    9.09760    4.12800
 1467480.00000    8.52000    0.03020   64.99140   60.16880    0.18610    6.64000    2.57970    9.09050    5.25400
 1467540.00000    8.54000    0.03000   65.16880   64.45350    0.18900    6.74000    2.60000    5.67050    4.43800
 1467600.00000    8.57030    0.03020   66.33780   66.60450    0.17810    5.18340    2.60000    4.77780    4.24150
 1467660.00000    8.57980    0.03980   67.55790   65.63290    0.17210    4.18420    2.60000    4.31100    3.91760
 1467720.00000    8.57000    0.04000   65.88910   63.43750    0.15750    4.22000    2.59010    3.93300    3.71160
 1467780.00000    8.57000    0.04000   65.19540   60.93340    0.13870    3.91000    2.59990    3.91780    3.72860
 1467840.00000    8.56020    0.04000   66.67090   57.63930    0.13300    3.72420    2.58980    3.64730    3.54770
 1467900.00000    8.56980    0.04000   67.92160   57.61070    0.12740    3.04760    2.58030    3.53300    3.45250
 1467960.00000    8.55000    0.04000   69.54510   54.77060    0.12260    3.05000    2.55030    3.54980    3.45000
 1468020.00000    8.56000    0.04000   71.59480   53.49960    0.12310    2.90000    2.52000    3.60960    3.26950
 1468080.00000    8.56000    0.04000   72.98110   49.64200    0.11350    2.74980    2.51980    3.52520    3.17700
 1468140.00000    8.56000    0.04000   72.80850   46.87970    0.11020    2.74030    2.51030    3.29660    3.03410
 1468200.00000    8.59000    0.03010   72.55850   46.02050    0.10270    2.98000    2.50010    2.89530    2.65510
 1468260.00000    8.61000    0.03000   72.37570   45.39000    0.11030    3.05000    2.50000    2.76000    2.61000
 1468320.00000    8.64900    0.03020   71.70020   48.75300    0.10580    3.24400    2.48040    2.45440    2.44110
 1468380.00000    8.59180    0.03970   69.70590   51.63910    0.11160    3.46320    2.49940    2.69250    2.49820
 1468440.00000    8.57030    0.04980   69.11120   58.39170    0.11210    3.17490    2.50000    3.00500    2.95260
 1468500.00000    8.54000    0.05000   70.16600   63.64000    0.11120    2.89000    2.52000    3.17000    3.43000
 1468560.00000    8.53000    0.04980   69.94960   70.44620    0.11220    2.91980    2.54000    3.33660    3.16590
 1468620.00000    8.52970    0.04000   67.66380   76.39810    0.11200    2.90430    2.54000    3.74210    3.51860
 1468680.00000    8.52020    0.04000   64.52900   77.60780    0.12100    2.72330    2.54000    3.80880    3.15670
 1468740.00000    8.54000    0.04000   63.09670   76.21000    0.11970    1.74000    2.55000    4.64000    3.56000
 1468800.00000    8.55000    0.04000   62.58080   73.56440    0.11340    1.66000    2.56010    5.12030    3.39160
 1468860.00000    8.55030    0.03970   64.26930   75.40330    0.11930    2.05970    2.56920    5.91770    2.78350
 1468920.00000    8.55980    0.03020   68.37010   76.55580    0.12820    2.05020    2.54060    7.22260    3.25020
 1468980.00000    8.55000    0.03990   74.28260   74.02370    0.13350    2.14000    2.51020    5.57900    2.96160
 1469040.00000    8.58000    0.04010   79.45300   65.76700    0.16120    3.48000    2.45960    1.98810    1.73630
 1469100.00000    8.57850    0.05000   81.82250   54.16370    0.18020    1.78170    2.41930    0.87100    0.46670
 1469160.00000    8.52130    0.05000   82.38920   46.68660    0.20160    0.70480    2.39070    0.52810    0.34290
 1469220.00000    8.51000    0.05000   80.87720   45.17080    0.20140    1.03000    2.39990    0.53980    0.41940
 1469280.00000    8.49000    0.05990   77.11150   46.75420    0.19160    1.49000    2.43020    0.57060    0.50170
 1469340.00000    8.49000    0.05020   74.18080   46.02540    0.18250    1.03800    2.45110    0.63980    0.70750
