~Version ---------------------------------------------------
VERS.   2.0 : CWLS log ASCII Standard -VERSION 2.0
WRAP.    NO : One line per depth step
DLM . SPACE : Column Data Section Delimiter
~Well ------------------------------------------------------
STRT.0.1 in             165840.0 : START DEPTH
STOP.0.1 in            1492980.0 : STOP DEPTH
STEP.0.1 in                 60.0 : STEP
NULL.                    -999.25 : NULL VALUE
COMP.                            : COMPANY
WELL.                   15/9-F-5 : WELL
FLD .                      VOLVE : FIELD
LOC .                            : LOCATION
PROV.                            : PROVINCE
CNTY.                            : COUNTY
STAT.                            : STATE
CTRY.                            : COUNTRY
SRVC.    CROCKER DATA PROCESSING : SERVICE COMPANY
DATE. 2009-02-18 14:44:38.068000 : DATE
UWI .                            : UNIQUE WELL ID
API .                            : API NUMBER
~Curve Information -----------------------------------------
DEPTH.0.1 in       : Measured Depth
CALI .inches       : CALI:UNKNOWN:rC:NONE:v1
DRHO .g/cm3        : DRHO:UNKNOWN:rC:NONE:v1
DT   .us/ft        : DT:UNKNOWN:rC:NONE:v1
GR   .API          : GR:UNKNOWN:rC:NONE:v1
NPHI .v/v_decimal  : NPHI:UNKNOWN:rC:NONE:v1
RD   .UNKNOWN      : RD:UNKNOWN:rC:NONE:v1
RHOB .g/cm3        : RHOB:UNKNOWN:rC:NONE:v1
RS   .UNKNOWN      : RS:UNKNOWN:rC:NONE:v1
RT   .ohm.m        : RT:UNKNOWN:rC:NONE:v1
~Params ----------------------------------------------------
PROD   .                        PETROLOG : 
PROG   .            ['PETROLOG-TO-DLIS'] : 
RUN    .                              [] : 
DESCENT.                              [] : 
VERSION.                           10.00 : 
LINEAGE.      Python-converted from DLIS : 
ORFILE . WLC_PETRO_COMPUTED_INPUT_1.DLIS : 
~Other -----------------------------------------------------
~ASCII -----------------------------------------------------
# ...
 1439580.00000    8.45020    0.05940   84.08590   26.68260    0.21300    7.49840    2.20000   10.49800    9.32020
 1439640.00000    8.45970    0.03080   82.62420   25.37770    0.22620    7.42220    2.20000   10.40280    9.80600
 1439700.00000    8.45010    0.02010   82.37840   22.92270    0.19870    7.13400    2.21970    9.42320    9.34640
 1439760.00000    8.46000    0.03000   82.93610   21.80000    0.20000    6.75000    2.23000    9.07000    8.84000
 1439820.00000    8.46000    0.03000   83.82790   20.15050    0.20950    6.78710    2.24000    7.42250    7.68110
 1439880.00000    8.46000    0.03000   84.53080   20.72200    0.20020    6.63480    2.24000    7.01290    7.19530
 1439940.00000    8.45020    0.03000   84.21040   20.71050    0.18720    6.53160    2.24980    6.04550    6.91430
 1440000.00000    8.46000    0.04000   83.61500   22.70000    0.19520    6.53000    2.27000    5.40000    6.15000
 1440060.00000    8.45980    0.03020   83.72220   24.08300    0.18020    6.36530    2.27000    5.26350    6.13280
 1440120.00000    8.45000    0.03970   84.11570   23.62060    0.18280    6.07480    2.26940    5.47820    5.69720
 1440180.00000    8.45000    0.03020   84.87690   22.68710    0.18830    5.91300    2.25030    5.42110    5.92580
 1440240.00000    8.45000    0.04000   85.45880   22.14000    0.19540    5.76000    2.24000    5.51000    5.53000
 1440300.00000    8.45000    0.03010   85.27370   22.78190    0.18240    5.47000    2.23000    5.82280    5.35870
 1440360.00000    8.45060    0.03970   84.78390   22.19100    0.18870    5.52560    2.23000    6.04400    6.00000
 1440420.00000    8.46960    0.03020   84.37050   22.57200    0.18170    5.37310    2.23000    6.52980    6.00000
 1440480.00000    8.45000    0.03990   84.18580   20.81940    0.20950    5.37000    2.23000    6.78870    6.70620
 1440540.00000    8.45000    0.04000   84.35690   21.97150    0.19060    5.38000    2.24010    6.77840    7.04070
 1440600.00000    8.45950    0.04000   84.77240   20.30220    0.18630    5.54930    2.25000    6.63650    7.10130
 1440660.00000    8.44050    0.04000   86.26570   21.91200    0.19250    5.52070    2.25000    6.88420    6.76790
 1440720.00000    8.44000    0.04000   87.16640   22.34680    0.18970    5.76000    2.24010    6.86020    7.21630
 1440780.00000    8.44000    0.03000   86.41800   24.61320    0.19670    5.80000    2.23010    6.89350    7.53340
 1440840.00000    8.44950    0.03020   86.38550   26.26890    0.19780    5.95930    2.24020    7.34010    7.95950
 1440900.00000    8.43050    0.03970   86.88270   27.06900    0.19800    5.93070    2.24970    7.76880    7.94050
 1440960.00000    8.46000    0.04000   87.20300   27.11970    0.18320    6.04000    2.25990    7.76020    8.13790
 1441020.00000    8.46000    0.04000   87.23850   28.03870    0.18900    6.22000    2.26010    7.43880    8.44980
 1441080.00000    8.45020    0.04000   87.15270   27.83680    0.19250    6.25000    2.27000    7.21400    8.40880
 1441140.00000    8.45970    0.04000   87.16620   29.58940    0.19000    6.25000    2.27000    6.92820    7.87540
 1441200.00000    8.46000    0.04000   87.02780   30.36030    0.18420    6.44000    2.27990    6.27870    7.73170
 1441260.00000    8.45000    0.04000   86.65410   32.20000    0.17300    6.40000    2.27000    6.12000    7.59000
 1441320.00000    8.45040    0.04000   85.89210   32.02410    0.18170    6.28640    2.29020    5.70620    6.82680
 1441380.00000    8.46940    0.04000   85.03380   31.70020    0.19450    6.09610    2.29970    5.49660    6.65540
 1441440.00000    8.47980    0.04000   84.70610   31.47350    0.18600    5.98180    2.30000    5.35220    6.28590
 1441500.00000    8.46000    0.04000   85.17490   30.17000    0.18190    5.83000    2.29000    5.30000    5.92000
 1441560.00000    8.45030    0.04000   86.11550   28.93350    0.18310    5.77950    2.28000    5.15680    5.85920
 1441620.00000    8.46880    0.04000   85.76440   27.90890    0.18300    5.74300    2.28000    4.95550    5.79740
 1441680.00000    8.43070    0.04000   84.42060   27.55650    0.18620    5.52420    2.28000    4.81260    5.39730
 1441740.00000    8.46000    0.04000   83.73010   27.46000    0.18100    5.42000    2.28000    4.68000    5.15000
 1441800.00000    8.47000    0.04000   83.50840   29.12710    0.19010    5.25960    2.29000    4.67840    5.06920
 1441860.00000    8.47080    0.04000   82.95580   31.13500    0.17790    5.22650    2.29000    4.56080    5.00750
 1441920.00000    8.49940    0.04000   82.69580   31.30640    0.17450    5.10260    2.29000    4.58940    4.92180
 1441980.00000    8.44000    0.04000   81.37650   30.22580    0.17590    4.94000    2.29000    4.53030    4.80060
 1442040.00000    8.45000    0.04000   82.41000   29.79030    0.17220    4.84000    2.28990    4.40810    4.65990
 1442100.00000    8.44050    0.03970   84.17390   31.67170    0.18420    4.85670    2.27980    4.22600    4.64320
 1442160.00000    8.45950    0.03020   84.35920   31.73840    0.17750    4.73300    2.27020    4.07360    4.38610
 1442220.00000    8.46000    0.03000   85.22460   31.88880    0.17640    4.64000    2.27000    3.92120    4.08240
 1442280.00000    8.45000    0.04000   85.78590   31.93490    0.18240    4.62000    2.27990    3.88980    4.17060
 1442340.00000    8.50910    0.04020   84.89200   33.78430    0.18270    4.51820    2.27050    3.86860    4.24460
 1442400.00000    8.47100    0.04980   83.80300   33.96520    0.19000    4.44200    2.28950    3.81150    4.01600
 1442460.00000    8.46000    0.05990   82.97150   34.32620    0.18560    4.47000    2.29990    3.81990    4.10890
 1442520.00000    8.47000    0.05990   82.74610   34.56190    0.15470    4.36000    2.29990    3.78010    3.91050
 1442580.00000    8.47980    0.05000   83.16730   34.90860    0.16960    4.29020    2.29000    3.80280    4.00060
 1442640.00000    8.47030    0.05000   83.85450   34.84190    0.18520    4.29970    2.29000    3.93620    4.02920
 1442700.00000    8.45000    0.05990   84.81560   33.87310    0.18780    4.28000    2.29000    4.11760    4.23720
 1442760.00000    8.49000    0.05000   85.26730   32.41000    0.18680    4.20000    2.28000    4.09000    4.32000
 1442820.00000    8.46040    0.05000   85.45850   31.27520    0.16920    4.24910    2.27000    4.27100    4.35050
 1442880.00000    8.47940    0.05000   85.71890   32.10390    0.19940    4.20150    2.27000    4.32820    4.37910
 1442940.00000    8.45050    0.05000   85.74000   35.24930    0.20000    4.22950    2.27000    4.37920    4.45870
 1443000.00000    8.46000    0.06000   85.93890   36.16000    0.17220    4.21000    2.28000    4.27000    4.43000
 1443060.00000    8.48970    0.06000   86.11780   34.06420    0.18510    4.23140    2.27020    4.29940    4.41970
 1443120.00000    8.46940    0.06000   86.13760   33.14040    0.19470    4.31850    2.27970    4.26360    4.40360
 1443180.00000    8.45030    0.06000   86.62570   34.74060    0.19570    4.27090    2.27020    4.37790    4.51790
 1443240.00000    8.49000    0.07000   86.89000   36.85000    0.19140    4.30000    2.27000    4.51000    4.64000
 1443300.00000    8.46000    0.06000   86.20580   36.01640    0.20560    4.25000    2.25000    4.64110    4.74150
 1443360.00000    8.45060    0.05970   85.93800   33.46210    0.20140    4.22970    2.25000    4.72030    4.85030
 1443420.00000    8.46960    0.05020   86.70680   31.10940    0.19050    4.22020    2.25000    4.72980    4.85980
 1443480.00000    8.46000    0.05990   86.87980   32.17400    0.18910    4.25000    2.25000    4.73990    4.88980
 1443540.00000    8.45000    0.05000   86.42970   32.76760    0.18910    4.17000    2.25000    4.75950    4.96950
 1443600.00000    8.47000    0.04980   86.23890   34.36380    0.19780    4.18050    2.24970    4.71250    4.92100
 1443660.00000    8.47000    0.04020   87.32030   32.98260    0.22260    4.19960    2.24020    4.80780    4.95910
 1443720.00000    8.47000    0.04000   87.99630   34.53720    0.22090    4.12000    2.24000    4.87940    4.89060
 1443780.00000    8.45000    0.04000   87.44790   36.06790    0.21830    4.22000    2.23010    4.88010    4.93940
