~Version ---------------------------------------------------
VERS.   2.0 : CWLS log ASCII Standard -VERSION 2.0
WRAP.    NO : One line per depth step
DLM . SPACE : Column Data Section Delimiter
~Well ------------------------------------------------------
STRT.0.1 in             165840.0 : START DEPTH
STOP.0.1 in            1492980.0 : STOP DEPTH
STEP.0.1 in                 60.0 : STEP
NULL.                    -999.25 : NULL VALUE
COMP.                            : COMPANY
WELL.                   15/9-F-5 : WELL
FLD .                      VOLVE : FIELD
LOC .                            : LOCATION
PROV.                            : PROVINCE
CNTY.                            : COUNTY
STAT.                            : STATE
CTRY.                            : COUNTRY
SRVC.    CROCKER DATA PROCESSING : SERVICE COMPANY
DATE. 2009-02-18 14:44:38.068000 : DATE
UWI .                            : UNIQUE WELL ID
API .                            : API NUMBER
~Curve Information -----------------------------------------
DEPTH.0.1 in       : Measured Depth
CALI .inches       : CALI:UNKNOWN:rC:NONE:v1
DRHO .g/cm3        : DRHO:UNKNOWN:rC:NONE:v1
DT   .us/ft        : DT:UNKNOWN:rC:NONE:v1
GR   .API          : GR:UNKNOWN:rC:NONE:v1
NPHI .v/v_decimal  : NPHI:UNKNOWN:rC:NONE:v1
RD   .UNKNOWN      : RD:UNKNOWN:rC:NONE:v1
RHOB .g/cm3        : RHOB:UNKNOWN:rC:NONE:v1
RS   .UNKNOWN      : RS:UNKNOWN:rC:NONE:v1
RT   .ohm.m        : RT:UNKNOWN:rC:NONE:v1
~Params ----------------------------------------------------
PROD   .                        PETROLOG : 
PROG   .            ['PETROLOG-TO-DLIS'] : 
RUN    .                              [] : 
DESCENT.                              [] : 
VERSION.                           10.00 : 
LINEAGE.      Python-converted from DLIS : 
ORFILE . WLC_PETRO_COMPUTED_INPUT_1.DLIS : 
~Other -----------------------------------------------------
~ASCII -----------------------------------------------------
# ...
 1213800.00000 -999.25000    0.07200   63.49840   14.06300    0.07240 -999.25000    2.63000    4.90150    4.79550
 1213860.00000 -999.25000    0.06000   62.14590   13.60200    0.07240 -999.25000    2.63000    5.01200    5.01200
 1213920.00000 -999.25000    0.04800   60.80230   13.14100    0.07050 -999.25000    2.63000    5.12750    5.01200
 1213980.00000 -999.25000    0.05400   65.21080   12.29720    0.06850 -999.25000    2.62000    5.24300    5.01200
 1214040.00000 -999.25000    0.06000   64.14080   11.45350    0.07410 -999.25000    2.61000    4.79100    5.01200
 1214100.00000 -999.25000    0.06400   60.79840   10.60970    0.07980 -999.25000    2.59000    4.48750    4.69450
 1214160.00000 -999.25000    0.06800   62.83050    9.76600    0.08920 -999.25000    2.57000    4.18400    4.37700
 1214220.00000 -999.25000    0.08400   67.27550   12.39100    0.10290 -999.25000    2.55000    3.76100    3.93500
 1214280.00000 -999.25000    0.10000   68.73750   15.01600    0.11650 -999.25000    2.57000    3.33800    3.49300
 1214340.00000 -999.25000    0.11600   68.93890   14.06300    0.10810 -999.25000    2.59000    3.82300    3.82300
 1214400.00000 -999.25000    0.12200   66.68760   11.91450    0.09970 -999.25000    2.60500    3.79890    3.82300
 1214460.00000 -999.25000    0.12800   63.25560    9.76600    0.09130 -999.25000    2.62000    3.77470    3.82300
 1214520.00000 -999.25000    0.09600   60.28010   11.00800    0.08860 -999.25000    2.61500    3.75060    3.82300
 1214580.00000 -999.25000    0.06400   60.19380   12.25000    0.08590 -999.25000    2.61000    3.72640    3.82300
 1214640.00000 -999.25000    0.06800   62.93640   12.25000    0.08330 -999.25000    2.60500    3.70230    3.82300
 1214700.00000 -999.25000    0.07200   66.10120   12.25000    0.08060 -999.25000    2.60000    3.67810    3.82300
 1214760.00000 -999.25000    0.09200   66.42240   12.69550    0.08940 -999.25000    2.59000    3.65400    3.82300
 1214820.00000 -999.25000    0.07800   66.22140   13.14100    0.09830 -999.25000    2.60000    3.65400    3.82300
 1214880.00000 -999.25000    0.06400   64.42050   12.25000    0.10710 -999.25000    2.61000    3.65400    3.82300
 1214940.00000 -999.25000    0.05800   61.35800   11.00800    0.09960 -999.25000    2.61000    3.65400    3.82300
 1215000.00000 -999.25000    0.05200   57.58390    9.76600    0.09210 -999.25000    2.61000    3.65400    3.82300
 1215060.00000 -999.25000    0.02000   54.33610    9.76600    0.08470 -999.25000    2.56000    3.74030    3.86700
 1215120.00000 -999.25000    0.02200   55.37740    9.76600    0.07720 -999.25000    2.56000    3.82650    3.91100
 1215180.00000 -999.25000    0.02400   62.30170   10.57850    0.08630 -999.25000    2.56000    3.91280    3.95500
 1215240.00000 -999.25000    0.02600   66.51520   11.39100    0.09550 -999.25000    2.56000    3.99900    3.99900
 1215300.00000 -999.25000    0.02800   67.86390   14.20350    0.10460 -999.25000    2.56500    3.63770    3.72970
 1215360.00000 -999.25000    0.05200   68.52750   17.01600    0.11380 -999.25000    2.57000    3.27630    3.46030
 1215420.00000 -999.25000    0.07600   68.32030   17.01600    0.11410 -999.25000    2.57500    2.91500    3.19100
 1215480.00000 -999.25000    0.10000   67.42480   15.07850    0.11440 -999.25000    2.58000    2.91500    3.12200
 1215540.00000 -999.25000    0.09600   67.64540   13.14100    0.11470 -999.25000    2.58000    2.91500    3.05300
 1215600.00000 -999.25000    0.09200   67.99840   13.29470    0.11140 -999.25000    2.58000    2.91500    2.98400
 1215660.00000 -999.25000    0.08800   65.45140   13.44830    0.10810 -999.25000    2.58000    2.91500    2.91500
 1215720.00000 -999.25000    0.08400   63.17210   13.60200    0.10480 -999.25000    2.58000    2.96000    2.96000
 1215780.00000 -999.25000    0.07500   63.97130   13.75570    0.10150 -999.25000    2.56000    3.00500    3.00500
 1215840.00000 -999.25000    0.06600   64.81000   13.90930    0.10780 -999.25000    2.54000    3.05000    3.05000
 1215900.00000 -999.25000    0.05700   65.98840   14.06300    0.11410 -999.25000    2.52000    2.95350    2.95350
 1215960.00000 -999.25000    0.04800   66.03070   13.83250    0.12050 -999.25000    2.50000    2.85700    2.85700
 1216020.00000 -999.25000    0.05600   67.45100   13.60200    0.12680 -999.25000    2.52000    2.76050    2.76050
 1216080.00000 -999.25000    0.06400   68.10240   13.37150    0.12260 -999.25000    2.54000    2.66400    2.66400
 1216140.00000 -999.25000    0.07200   66.40830   13.14100    0.11840 -999.25000    2.56000    2.66400    2.63450
 1216200.00000 -999.25000    0.07500   65.62470   13.14100    0.11420 -999.25000    2.56250    2.66400    2.60500
 1216260.00000 -999.25000    0.07800   65.67490   13.14100    0.11620 -999.25000    2.56500    2.66400    2.57550
 1216320.00000 -999.25000    0.08100   65.75590   13.14100    0.11810 -999.25000    2.56750    2.66400    2.54600
 1216380.00000 -999.25000    0.08400   65.58520   13.60970    0.12000 -999.25000    2.57000    2.74770    2.66900
 1216440.00000 -999.25000    0.07730   64.49420   14.07850    0.12190 -999.25000    2.56670    2.83130    2.79200
 1216500.00000 -999.25000    0.07070   64.50420   14.54720    0.11810 -999.25000    2.56330    2.91500    2.91500
 1216560.00000 -999.25000    0.06400   63.69100   15.01600    0.11420 -999.25000    2.56000    3.05950    3.05950
 1216620.00000 -999.25000    0.06500   63.07090   13.70350    0.11040 -999.25000    2.56500    3.20400    3.20400
 1216680.00000 -999.25000    0.06600   62.47350   12.39100    0.10440 -999.25000    2.57000    3.34850    3.34850
 1216740.00000 -999.25000    0.06700   62.11150   11.07850    0.09850 -999.25000    2.57500    3.49300    3.49300
 1216800.00000 -999.25000    0.06800   61.35680    9.76600    0.09260 -999.25000    2.58000    3.53330    3.53330
 1216860.00000 -999.25000    0.07200   60.96320   10.89100    0.08660 -999.25000    2.56670    3.57350    3.57350
 1216920.00000 -999.25000    0.07600   62.84680   12.01600    0.09470 -999.25000    2.55330    3.61370    3.61370
 1216980.00000 -999.25000    0.08000   63.66220   13.14100    0.10270 -999.25000    2.54000    3.65400    3.65400
 1217040.00000 -999.25000    0.08400   62.63650   12.91830    0.11070 -999.25000    2.54250    3.54870    3.54870
 1217100.00000 -999.25000    0.07870   62.25010   12.69550    0.11880 -999.25000    2.54500    3.44330    3.44330
 1217160.00000 -999.25000    0.07330   64.98000   12.47270    0.10940 -999.25000    2.54750    3.33800    3.33800
 1217220.00000 -999.25000    0.06800   65.71240   12.25000    0.09990 -999.25000    2.55000    3.54950    3.50320
 1217280.00000 -999.25000    0.06700   64.60180   12.25000    0.09050 -999.25000    2.55500    3.76100    3.66850
 1217340.00000 -999.25000    0.06600   63.19780   12.25000    0.09360 -999.25000    2.56000    3.97250    3.83380
 1217400.00000 -999.25000    0.06500   63.56950   12.25000    0.09670 -999.25000    2.56500    4.18400    3.99900
 1217460.00000 -999.25000    0.06400   64.53200   11.62900    0.09980 -999.25000    2.57000    4.12230    3.99900
 1217520.00000 -999.25000    0.07000   63.72900   11.00800    0.10280 -999.25000    2.57500    4.06070    3.99900
 1217580.00000 -999.25000    0.07600   62.03420   10.38700    0.10030 -999.25000    2.58000    3.99900    3.99900
 1217640.00000 -999.25000    0.08200   61.88750    9.76600    0.09780 -999.25000    2.58500    3.95500    3.95500
 1217700.00000 -999.25000    0.08800   63.03730   10.38700    0.09520 -999.25000    2.59000    3.91100    3.91100
 1217760.00000 -999.25000    0.09200   62.52610   11.00800    0.09270 -999.25000    2.58000    3.86700    3.86700
 1217820.00000 -999.25000    0.09600   62.01520   11.62900    0.09960 -999.25000    2.57000    3.82300    3.82300
 1217880.00000 -999.25000    0.10000   63.49820   12.25000    0.10650 -999.25000    2.56000    3.74050    3.70180
 1217940.00000 -999.25000    0.09200   65.13100   12.25000    0.11340 -999.25000    2.55500    3.65800    3.58050
 1218000.00000 -999.25000    0.08400   63.49990   12.25000    0.11150 -999.25000    2.55000    3.57550    3.45920
