~Version ---------------------------------------------------
VERS.   2.0 : CWLS log ASCII Standard -VERSION 2.0
WRAP.    NO : One line per depth step
DLM . SPACE : Column Data Section Delimiter
~Well ------------------------------------------------------
STRT.0.1 in          67920.00000 : START DEPTH
STOP.0.1 in        1476300.00000 : STOP DEPTH
STEP.0.1 in             60.00000 : STEP
NULL.                    -999.25 : NULL VALUE
COMP.               STATOILHYDRO : COMPANY
WELL.                  15/9-F-14 : WELL
FLD .                      VOLVE : FIELD
LOC .                            : LOCATION
PROV.                            : PROVINCE
CNTY.                            : COUNTY
STAT.                            : STATE
CTRY.                            : COUNTRY
SRVC.    CROCKER DATA PROCESSING : SERVICE COMPANY
DATE. 2009-02-18 14:31:44.282000 : DATE
UWI .                            : UNIQUE WELL ID
API .                            : API NUMBER
~Curve Information -----------------------------------------
DEPTH.0.1 in       : Measured Depth
DRHO .g/cm3        : DRHO:UNKNOWN:rC:NONE:v1
DT   .us/ft        : DT:UNKNOWN:rC:NONE:v2
DTS  .us/ft        : DTS:UNKNOWN:rC:NONE:v1
GR   .API          : GR:UNKNOWN:rC:NONE:v1
NPHI .v/v_decimal  : NPHI:UNKNOWN:rC:NONE:v1
PEF  .b/elec       : PEF:UNKNOWN:rC:NONE:v1
RD   .UNKNOWN      : RD:UNKNOWN:rC:NONE:v1
RHOB .g/cm3        : RHOB:UNKNOWN:rC:NONE:v1
RS   .UNKNOWN      : RS:UNKNOWN:rC:NONE:v1
RT   .ohm.m        : RT:UNKNOWN:rC:NONE:v1
~Params ----------------------------------------------------
PROD   .                        PETROLOG : 
PROG   .            ['PETROLOG-TO-DLIS'] : 
RUN    .                              [] : 
DESCENT.                              [] : 
VERSION.                           10.00 : 
LINEAGE.      Python-converted from DLIS : 
ORFILE . WLC_PETRO_COMPUTED_INPUT_1.DLIS : 
~Other -----------------------------------------------------
~ASCII -----------------------------------------------------
# ...
 1292340.00000    0.01550   86.76200  160.52650   44.67380    0.20220    2.79840    1.41520    2.34190    1.45320    1.35590
 1292400.00000    0.01260   85.87050  160.42830   46.34060    0.21360    2.88100    1.32070    2.35550    1.44660    1.47710
 1292460.00000    0.02250   84.91740  160.33009   49.19420    0.20490    2.90540    1.34270    2.38020    1.26820    1.22930
 1292520.00000    0.02670   82.78800  160.23190   52.86450    0.19340    2.96240    1.18540    2.38930    1.18070    1.47670
 1292580.00000    0.03240   78.13140  160.13380   57.74060    0.18510    3.04370    1.52400    2.40890    1.28940    1.09900
 1292640.00000    0.02580   73.64230  160.03560   60.90720    0.17550    3.20630    1.45250    2.42450    1.69690    1.88730
 1292700.00000    0.02640   70.50310  159.93739   61.40720    0.19650    3.41450    1.43650    2.46660    1.66920    1.76350
 1292760.00000    0.04370   69.27040  159.83920   58.94100    0.17410    3.36660    1.63000    2.53810    1.87280    2.56730
 1292820.00000    0.01640   69.43210  159.74100   56.99420    0.16330    3.51090    1.75410    2.52000    1.93440    2.39390
 1292880.00000    0.01060   69.88250  159.64281   55.30990    0.16730    3.60280    1.93020    2.55210    1.97120    1.89230
 1292940.00000   -0.00120   68.08540  159.54460   55.50130    0.16820    3.79550    2.04710    2.54870    2.16640    2.38520
 1293000.00000    0.01760   67.20050  159.44650   54.82510    0.15550    3.68660    2.33660    2.62480    2.25150    4.38380
 1293060.00000    0.01960   69.58250  159.34830   52.87110    0.15930    3.81290    2.34940    2.61010    2.14630    3.04400
 1293120.00000    0.03180   73.32100  159.25011   51.42360    0.17350    3.98170    2.47810    2.58480    2.28590    2.98830
 1293180.00000    0.05180   74.07880  159.15190   50.56810    0.17340    4.14250    2.62530    2.56560    2.60380    3.28210
 1293240.00000    0.05740   73.99470  159.05370   49.00680    0.15280    4.22650    2.99040    2.53380    2.82770    4.17300
 1293300.00000    0.06180   73.27260  158.95551   47.03850    0.13520    3.95040    3.61240    2.53900    2.84010    5.10080
 1293360.00000    0.05000   72.05700  158.85730   44.96360    0.11990    3.72830    4.82290    2.53310    2.57090    5.98080
 1293420.00000    0.05730   70.66500  158.75920   43.71830    0.10350    3.71930    5.58610    2.54290    2.35260    5.90260
 1293480.00000    0.05390   71.10500  158.66100   43.18840    0.10970    3.57770    6.31790    2.53670    2.34610    5.25660
 1293540.00000    0.04840   68.98960  158.56281   43.47220    0.11990    3.19900    8.27100    2.54180    2.81410    5.70290
 1293600.00000    0.02810   69.08720  158.46460   45.35810    0.12480    2.94670   12.32070    2.52430    3.27710    9.07010
 1293660.00000    0.03050   70.88410  158.36639   44.43060    0.14110    3.15390   13.07980    2.52060    3.85340    9.51710
 1293720.00000    0.03790   72.68390  158.26820   44.51290    0.13980    3.38700   12.05210    2.52450    4.67050   11.75250
 1293780.00000    0.03850   74.25740  158.17010   46.34040    0.14260    3.20460   13.44680    2.54670    5.98030   15.26170
 1293840.00000    0.02100   75.19810  158.07190   49.87500    0.14120    2.90520   13.14970    2.54800    9.74890   20.10080
 1293900.00000    0.01580   78.20680  158.49789   51.44020    0.14900    2.86050   13.89690    2.51810   15.64540   28.35010
 1293960.00000    0.02800   85.90460  158.43230   50.69470    0.18400    3.05650   16.05810    2.44930   35.33980   41.98490
 1294020.00000    0.03380   90.98740  157.91180   47.31950    0.19620    3.14220   19.10110    2.34170   55.82650  106.41120
 1294080.00000    0.03370   95.36500  160.17599   41.59800    0.21820    3.06700   23.57780    2.24280   33.40150  213.45970
 1294140.00000    0.03200   96.52680  162.83180   38.94130    0.21980    2.96320   21.30480    2.18170   28.45380   80.75670
 1294200.00000    0.02830   96.00070  162.83180   37.96860    0.21930    2.84300   20.21020    2.15240   36.49280   61.19140
 1294260.00000    0.02340   95.14890  162.83180   39.10050    0.21420    2.79960   22.98850    2.13900   53.86190   65.30160
 1294320.00000    0.01280   94.66170  162.83180   36.88200    0.21910    2.71040   24.27990    2.12340   52.25820   66.58540
 1294380.00000    0.00950   93.62650  162.83180   35.59380    0.23280    2.78330   26.36450    2.11920   46.28870   76.81330
 1294440.00000    0.01490   97.37860  162.78040   34.18350    0.20710    2.83910   24.70250    2.12830   47.54570   57.93850
 1294500.00000    0.01910   96.17730  162.58411   34.07500    0.21020    2.93190   27.02980    2.13590   53.75650   58.17120
 1294560.00000    0.02470   97.74310  162.36610   32.96500    0.21860    3.02290   26.94050    2.13890   56.46660   56.11010
 1294620.00000    0.02410   98.77220  162.14819   33.14750    0.21440    3.09420   29.22040    2.13050   63.71520   60.51460
 1294680.00000    0.02460   99.59530  161.93030   33.79350    0.22950    3.16340   31.10480    2.12950   71.44210   62.38550
 1294740.00000    0.02200   98.54430  161.71230   35.13820    0.22090    3.09860   33.29670    2.13460   70.32000   65.89040
 1294800.00000    0.02010   97.84520  161.49440   36.43770    0.21050    3.05790   33.27340    2.14700   72.41730   67.44140
 1294860.00000    0.01730   97.40710  161.22549   35.66560    0.20620    2.98920   34.50040    2.15440   71.78550   68.88130
 1294920.00000    0.02170   97.22460  160.77440   35.78630    0.21840    2.94830   37.03900    2.16650   75.82950   69.10200
 1294980.00000    0.02700   98.03380  160.19910   35.75560    0.21420    2.93560   37.19010    2.16950   74.04630   68.80430
 1295040.00000    0.03370   96.59910  159.62370   36.74490    0.20450    2.98900   38.34460    2.17720   75.06170   70.45920
 1295100.00000    0.02510   97.91620  159.04840   37.80370    0.21300    2.95320   38.72660    2.17040   78.66970   72.21820
 1295160.00000    0.01930  100.85870  158.47310   37.92530    0.20860    2.89250   38.41460    2.16700   77.29410   73.45880
 1295220.00000    0.01720  100.26090  157.83501   39.13660    0.20380    2.79290   39.50310    2.17400   80.74530   75.27190
 1295280.00000    0.01990   97.50400  157.27660   38.34610    0.20270    2.73610   40.33550    2.17560   79.22300   74.98940
 1295340.00000    0.01910   93.87080  157.39970   38.55170    0.19780    2.64220   40.01620    2.18210   81.38710   74.25530
 1295400.00000    0.01600   93.64310  157.37309   37.04420    0.19430    2.67160   40.94480    2.17240   82.29740   73.32410
 1295460.00000    0.01890   91.89440  156.57370   37.83410    0.21640    2.79970   41.08710    2.16960   84.22650   73.14340
 1295520.00000    0.01820   91.12580  155.14211   37.53650    0.21550    2.85820   41.93250    2.15730   82.26740   74.43610
 1295580.00000    0.01740   90.53300  153.46510   37.74950    0.19910    2.80990   40.20870    2.15270   85.05410   73.08510
 1295640.00000    0.01630   90.74860  151.94009   36.86990    0.18570    2.72340   41.14030    2.15580   83.23620   73.09980
 1295700.00000    0.01580   91.92590  150.47110   37.28410    0.20500    2.73430   40.61240    2.16220   82.89340   73.24320
 1295760.00000    0.01680   93.94300  150.55589   37.65100    0.20530    2.81300   40.41240    2.16410   85.11270   71.39160
 1295820.00000    0.01520   95.40160  152.10620   38.09290    0.20640    2.84120   41.25130    2.15990   79.61510   71.46870
 1295880.00000    0.01950   96.90200  153.84711   38.05020    0.20960    2.83780   41.21860    2.16810   82.00240   70.78830
 1295940.00000    0.02050   98.33230  155.11031   38.98710    0.20170    2.78570   41.46880    2.16750   78.62110   68.95880
 1296000.00000    0.02180   98.48890  156.59380   40.29990    0.21160    2.77880   41.13350    2.17140   77.45030   69.96600
 1296060.00000    0.02240   98.29570  157.98720   40.99020    0.21750    2.80700   41.83390    2.16510   79.20920   68.44870
 1296120.00000    0.02940   98.29550  159.34050   38.93460    0.20220    2.85360   40.92130    2.17390   75.74260   67.90920
