~Version ---------------------------------------------------
VERS.   2.0 : CWLS log ASCII Standard -VERSION 2.0
WRAP.    NO : One line per depth step
DLM . SPACE : Column Data Section Delimiter
~Well ------------------------------------------------------
STRT.0.1 in          67920.00000 : START DEPTH
STOP.0.1 in        1476300.00000 : STOP DEPTH
STEP.0.1 in             60.00000 : STEP
NULL.                    -999.25 : NULL VALUE
COMP.               STATOILHYDRO : COMPANY
WELL.                  15/9-F-14 : WELL
FLD .                      VOLVE : FIELD
LOC .                            : LOCATION
PROV.                            : PROVINCE
CNTY.                            : COUNTY
STAT.                            : STATE
CTRY.                            : COUNTRY
SRVC.    CROCKER DATA PROCESSING : SERVICE COMPANY
DATE. 2009-02-18 14:31:44.282000 : DATE
UWI .                            : UNIQUE WELL ID
API .                            : API NUMBER
~Curve Information -----------------------------------------
DEPTH.0.1 in       : Measured Depth
DRHO .g/cm3        : DRHO:UNKNOWN:rC:NONE:v1
DT   .us/ft        : DT:UNKNOWN:rC:NONE:v2
DTS  .us/ft        : DTS:UNKNOWN:rC:NONE:v1
GR   .API          : GR:UNKNOWN:rC:NONE:v1
NPHI .v/v_decimal  : NPHI:UNKNOWN:rC:NONE:v1
PEF  .b/elec       : PEF:UNKNOWN:rC:NONE:v1
RD   .UNKNOWN      : RD:UNKNOWN:rC:NONE:v1
RHOB .g/cm3        : RHOB:UNKNOWN:rC:NONE:v1
RS   .UNKNOWN      : RS:UNKNOWN:rC:NONE:v1
RT   .ohm.m        : RT:UNKNOWN:rC:NONE:v1
~Params ----------------------------------------------------
PROD   .                        PETROLOG : 
PROG   .            ['PETROLOG-TO-DLIS'] : 
RUN    .                              [] : 
DESCENT.                              [] : 
VERSION.                           10.00 : 
LINEAGE.      Python-converted from DLIS : 
ORFILE . WLC_PETRO_COMPUTED_INPUT_1.DLIS : 
~Other -----------------------------------------------------
~ASCII -----------------------------------------------------
# ...
 1092660.00000 -999.25000 -999.25000 -999.25000   27.59200 -999.25000 -999.25000 -999.25000 -999.25000 -999.25000    5.01100
 1092720.00000 -999.25000 -999.25000 -999.25000   27.59200 -999.25000 -999.25000 -999.25000 -999.25000 -999.25000    5.01100
 1092780.00000 -999.25000 -999.25000 -999.25000   27.59200 -999.25000 -999.25000 -999.25000 -999.25000 -999.25000    5.01100
 1092840.00000 -999.25000 -999.25000 -999.25000   27.59200 -999.25000 -999.25000 -999.25000 -999.25000 -999.25000    5.01100
 1092900.00000 -999.25000 -999.25000 -999.25000   27.59200 -999.25000 -999.25000 -999.25000 -999.25000 -999.25000    5.01100
 1092960.00000 -999.25000 -999.25000 -999.25000   27.59200 -999.25000 -999.25000 -999.25000 -999.25000 -999.25000    5.01100
 1093020.00000 -999.25000 -999.25000 -999.25000   27.59200 -999.25000 -999.25000 -999.25000 -999.25000 -999.25000    5.01100
 1093080.00000 -999.25000 -999.25000 -999.25000   27.59200 -999.25000 -999.25000 -999.25000 -999.25000 -999.25000    5.01100
 1093140.00000 -999.25000 -999.25000 -999.25000   27.59200 -999.25000 -999.25000 -999.25000 -999.25000 -999.25000    5.01100
 1093200.00000 -999.25000 -999.25000 -999.25000   27.59200 -999.25000 -999.25000 -999.25000 -999.25000 -999.25000    5.01100
 1093260.00000 -999.25000 -999.25000 -999.25000   27.59200 -999.25000 -999.25000 -999.25000 -999.25000 -999.25000    5.01100
 1093320.00000 -999.25000 -999.25000 -999.25000   27.59200 -999.25000 -999.25000 -999.25000 -999.25000 -999.25000    5.01100
 1093380.00000 -999.25000 -999.25000 -999.25000   27.59200 -999.25000 -999.25000 -999.25000 -999.25000 -999.25000    5.01100
 1093440.00000 -999.25000 -999.25000 -999.25000   27.59200 -999.25000 -999.25000 -999.25000 -999.25000 -999.25000    5.01100
 1093500.00000 -999.25000 -999.25000 -999.25000   27.59200 -999.25000 -999.25000 -999.25000 -999.25000 -999.25000    5.01100
 1093560.00000 -999.25000 -999.25000 -999.25000   27.59200 -999.25000 -999.25000 -999.25000 -999.25000 -999.25000    5.01100
 1093620.00000 -999.25000 -999.25000 -999.25000   27.59200 -999.25000 -999.25000 -999.25000 -999.25000 -999.25000    5.01100
 1093680.00000   -0.88310 -999.25000 -999.25000   27.59200    0.25410   50.03240    0.14280    2.14440 5000.00000    5.01100
 1093740.00000   -1.00920 -999.25000 -999.25000 -999.25000    0.27130   56.00630    0.14280    2.03510 5000.00000    5.01100
 1093800.00000   -1.04060 -999.25000 -999.25000 -999.25000    0.26870   59.06370    0.10930    2.04440 5000.00000    5.01100
 1093860.00000   -0.98450 -999.25000 -999.25000   10.79550    0.26430   55.83170    0.12110    2.10740 5000.00000    5.01100
 1093920.00000   -0.94890 -999.25000 -999.25000    9.97790    0.26310   54.77400    1.17140    2.12110 5000.00000    5.01100
 1093980.00000   -0.90120 -999.25000 -999.25000    9.69010    0.26660   52.52750    0.10000    2.16710 5000.00000    5.01100
 1094040.00000   -0.96630 -999.25000 -999.25000    8.90230    0.25440   54.86550    0.15940    2.16170 5000.00000    5.01100
 1094100.00000   -1.08640 -999.25000 -999.25000    9.37190    0.27980   59.97970    0.10310    2.12970 5000.00000    5.01100
 1094160.00000   -1.26790 -999.25000 -999.25000    9.06620    0.28560   67.77530    0.16140    2.00000 5000.00000    5.01100
 1094220.00000   -1.25940 -999.25000 -999.25000    9.24250    0.28210   67.64610    0.14770    1.98320 5000.00000    5.01100
 1094280.00000   -1.12470 -999.25000 -999.25000    9.57970    0.29520   64.99690    0.10690    2.06570 5000.00000    5.01100
 1094340.00000   -1.07140 -999.25000 -999.25000   10.33100    0.31540   62.62450    0.13340    2.05120 5000.00000    5.01100
 1094400.00000   -1.01520 -999.25000 -999.25000   10.72070    0.29790   58.88650    0.11450    2.08790 5000.00000    5.01100
 1094460.00000   -0.98980 -999.25000 -999.25000   11.26270    0.31610   57.40800    0.11300    2.09490 5000.00000    5.01100
 1094520.00000   -0.97760 -999.25000 -999.25000   11.21820    0.32040   56.37290    0.10000    2.08840 5000.00000    5.01100
 1094580.00000   -1.02990 -999.25000 -999.25000   11.64380    0.31800   59.55150    0.19840    2.02680 5000.00000    5.01100
 1094640.00000   -1.07290 -999.25000 -999.25000   12.06100    0.32210   61.80690    0.10000    1.97410 5000.00000    5.01100
 1094700.00000   -1.11270   69.68060 -999.25000   13.50020    0.32530   63.38680    0.10000    1.94030 5000.00000    5.01100
 1094760.00000   -1.14200   71.51820 -999.25000   14.42830    0.32990   65.76510    0.29810    1.92030 5000.00000    5.01100
 1094820.00000   -1.02230   72.81430 -999.25000   15.05530    0.31860   58.83840    0.10000    2.04600 5000.00000    5.01100
 1094880.00000   -0.87600   72.92710 -999.25000   14.91730    0.29850   52.07290    0.10000    2.16710 5000.00000    5.01100
 1094940.00000   -0.88180   71.82990 -999.25000   14.79610    0.31690   51.21210    0.10000    2.13530 5000.00000    5.01100
 1095000.00000   -1.00650   73.68580 -999.25000   14.42220    0.33110   56.07820    0.11160    2.01630 5000.00000    5.01100
 1095060.00000   -1.20350   75.43740 -999.25000   13.77810    0.34510   66.95650    0.10070    1.85100 5000.00000    5.01100
 1095120.00000   -1.22990   73.12450 -999.25000   12.91320    0.34890   68.95980    0.10470    1.84560 5000.00000    5.01100
 1095180.00000   -1.21900   72.10770 -999.25000   12.16740    0.32730   68.99210  200.00000    1.87870 5000.00000    5.01100
 1095240.00000   -1.32790   72.19090 -999.25000   11.19270    0.32830   71.13390    0.16650    1.88460 5000.00000    5.01100
 1095300.00000   -1.59540   72.91160 -999.25000   10.56050    0.30680   79.21670    0.10000    1.81940   18.01760    5.01100
 1095360.00000   -1.87750   71.59720 -999.25000   10.18840    0.31270   86.10330    0.20650    1.81480 5000.00000    5.01100
 1095420.00000   -2.26440   68.31410  132.39650   10.94700    0.46220  138.71730    0.12460    1.09880    2.72990    5.01100
 1095480.00000   -0.56080   66.35100  133.70419   12.63980    0.36110   43.52110    1.48420    2.34650 5000.00000    5.01100
 1095540.00000   -0.14110   69.84420  134.95430   15.20480    0.37940   36.12400    0.10000    2.12950   24.35430    5.01100
 1095600.00000    0.22620   71.30530  135.88271   16.62040    0.32890   29.22660    7.96630    2.20230    2.68510    5.01100
 1095660.00000    0.33230   73.14290  136.36211   17.32010    0.28400   26.91020    0.80880    2.16150    0.63100    5.01100
 1095720.00000    0.37700   73.99470  136.84151   16.08540    0.23700   18.65590    3.50160    2.24070    1.51630    5.01100
 1095780.00000    0.28550   73.22330  135.99899   16.59040    0.23740   12.54900  200.00000    2.25600    4.46400    5.01100
 1095840.00000    0.25200   72.61680  132.35820   16.15760    0.25670    8.96380    0.38980    2.30680    8.07330    5.01100
 1095900.00000    0.24920   72.94540  131.21400   16.47930    0.26130    9.57000    2.81710    2.32690    2.98210    5.01100
 1095960.00000    0.29490   74.11170  131.66341   16.08390    0.24890   13.65890    2.84690    2.30690    3.13920    5.01100
 1096020.00000    0.48860   74.60800  132.11861   16.78780    0.23970   20.31140    2.86080    2.35370    3.37920    5.01100
 1096080.00000    0.32950   71.64150  132.85390   17.84190    0.24280   26.96240    2.79560    2.19780    3.28980    5.01100
 1096140.00000    0.29770   72.32680  134.29250   19.05700    0.25400   27.89280    2.77130    2.15470    3.20700    5.01100
 1096200.00000    0.29830   72.60490  135.24350   19.70140    0.25250   27.71650    2.77400    2.15410    3.14880    2.97320
 1096260.00000    0.33310   72.56610  134.77440   18.81350    0.25530   26.85520    2.77840    2.18900    3.07320    2.79390
 1096320.00000    0.37060   71.49360  134.14890   16.90590    0.25480   25.99540    2.68980    2.22360    2.89600    2.71940
 1096380.00000    0.40570   72.62530  134.02980   16.49270    0.25680   25.46590    2.71590    2.26050    2.80020    2.64730
 1096440.00000    0.39170   72.94470  134.02980   16.79150    0.24820   25.57950    2.65930    2.25310    2.79820    2.52440
