~Version ---------------------------------------------------
VERS.   2.0 : CWLS log ASCII Standard -VERSION 2.0
WRAP.    NO : One line per depth step
DLM . SPACE : Column Data Section Delimiter
~Well ------------------------------------------------------
STRT.0.1 in             165840.0 : START DEPTH
STOP.0.1 in            1492980.0 : STOP DEPTH
STEP.0.1 in                 60.0 : STEP
NULL.                    -999.25 : NULL VALUE
COMP.                            : COMPANY
WELL.                   15/9-F-5 : WELL
FLD .                      VOLVE : FIELD
LOC .                            : LOCATION
PROV.                            : PROVINCE
CNTY.                            : COUNTY
STAT.                            : STATE
CTRY.                            : COUNTRY
SRVC.    CROCKER DATA PROCESSING : SERVICE COMPANY
DATE. 2009-02-18 14:44:38.068000 : DATE
UWI .                            : UNIQUE WELL ID
API .                            : API NUMBER
~Curve Information -----------------------------------------
DEPTH.0.1 in       : Measured Depth
CALI .inches       : CALI:UNKNOWN:rC:NONE:v1
DRHO .g/cm3        : DRHO:UNKNOWN:rC:NONE:v1
DT   .us/ft        : DT:UNKNOWN:rC:NONE:v1
GR   .API          : GR:UNKNOWN:rC:NONE:v1
NPHI .v/v_decimal  : NPHI:UNKNOWN:rC:NONE:v1
RD   .UNKNOWN      : RD:UNKNOWN:rC:NONE:v1
RHOB .g/cm3        : RHOB:UNKNOWN:rC:NONE:v1
RS   .UNKNOWN      : RS:UNKNOWN:rC:NONE:v1
RT   .ohm.m        : RT:UNKNOWN:rC:NONE:v1
~Params ----------------------------------------------------
PROD   .                        PETROLOG : 
PROG   .            ['PETROLOG-TO-DLIS'] : 
RUN    .                              [] : 
DESCENT.                              [] : 
VERSION.                           10.00 : 
LINEAGE.      Python-converted from DLIS : 
ORFILE . WLC_PETRO_COMPUTED_INPUT_1.DLIS : 
~Other -----------------------------------------------------
~ASCII -----------------------------------------------------
# ...
 1264920.00000 -999.25000    0.05600   74.09020   34.51600    0.11790 -999.25000    2.56000    2.43400    2.46200
 1264980.00000 -999.25000    0.07600   72.47320   31.64100    0.10250 -999.25000    2.57000    2.49000    2.38000
 1265040.00000 -999.25000    0.08800   70.68660   26.26600    0.10870 -999.25000    2.59000    2.72500    2.72500
 1265100.00000 -999.25000    0.07200   70.59720   25.00000    0.10890 -999.25000    2.58000    2.91500    2.91500
 1265160.00000 -999.25000    0.10000   70.35430   27.56300    0.10810 -999.25000    2.56000    3.05000    2.98300
 1265220.00000 -999.25000    0.10400   70.13270   25.00000    0.10700 -999.25000    2.59000    3.05000    3.05000
 1265280.00000 -999.25000    0.09200   70.42700   30.25000    0.10980 -999.25000    2.55000    3.05000    3.05000
 1265340.00000 -999.25000    0.09200   71.05360   23.76600    0.11120 -999.25000    2.61000    3.05000    2.91500
 1265400.00000 -999.25000    0.06400   71.70930   25.00000    0.10330 -999.25000    2.58000    3.19100    3.19100
 1265460.00000 -999.25000    0.06800   72.16650   26.26600    0.09750 -999.25000    2.60000    3.05000    3.12100
 1265520.00000 -999.25000    0.06400   72.00660   27.56300    0.11000 -999.25000    2.58000    3.05000    3.19100
 1265580.00000 -999.25000    0.06800   71.52080   27.56300    0.10260 -999.25000    2.60000    3.00500    3.05000
 1265640.00000 -999.25000    0.04800   70.36340   27.56300    0.10750 -999.25000    2.58000    2.91500    2.91500
 1265700.00000 -999.25000    0.04800   67.86140   36.00000    0.11350 -999.25000    2.57000    3.12100    3.12100
 1265760.00000 -999.25000    0.11600   65.50440   34.51600    0.11340 -999.25000    2.61000    3.99900    3.52000
 1265820.00000 -999.25000    0.12400   64.07120   31.64100    0.08770 -999.25000    2.65000    4.37700    3.91900
 1265880.00000 -999.25000    0.03200   63.23940   28.89100    0.07770 -999.25000    2.59000    4.79100    4.79100
 1265940.00000 -999.25000    0.02400   63.52130   27.56300    0.07230 -999.25000    2.60000    5.24300    5.01200
 1266000.00000 -999.25000    0.06400   64.36080   23.76600    0.07550 -999.25000    2.62000    5.01200    5.24300
 1266060.00000 -999.25000    0.07200   65.17400   28.89100    0.08070 -999.25000    2.63000    5.24300    5.24300
 1266120.00000 -999.25000    0.06800   65.16920   27.56300    0.08620 -999.25000    2.62000    5.01200    5.48500
 1266180.00000 -999.25000    0.08800   65.37990   26.26600    0.08850 -999.25000    2.64000    5.01200    5.01200
 1266240.00000 -999.25000    0.08400   66.29230   26.26600    0.09250 -999.25000    2.63000    5.01200    4.57900
 1266300.00000 -999.25000    0.05600   68.12610   31.64100    0.09850 -999.25000    2.63000    4.68500    4.79100
 1266360.00000 -999.25000    0.04000   70.92080   27.56300    0.10590 -999.25000    2.59000    4.25400    4.57900
 1266420.00000 -999.25000    0.05600   72.87670   31.64100    0.12090 -999.25000    2.60000    3.82300    4.37700
 1266480.00000 -999.25000    0.05400   73.33360   31.64100    0.15230 -999.25000    2.59000    3.49300    3.65400
 1266540.00000 -999.25000    0.05200   72.30390   31.64100    0.14960 -999.25000    2.58000    2.91500    2.91500
 1266600.00000 -999.25000    0.09600   70.37980   40.64100    0.11840 -999.25000    2.60000    2.66400    2.66400
 1266660.00000 -999.25000    0.09600   69.04640   31.64100    0.09170 -999.25000    2.57000    3.07850    3.15900
 1266720.00000 -999.25000    0.05600   69.41240   27.56300    0.09720 -999.25000    2.59000    3.49300    3.65400
 1266780.00000 -999.25000    0.04400   70.74190   27.56300    0.10280 -999.25000    2.58000    3.49300    3.33800
 1266840.00000 -999.25000    0.05600   71.78590   31.64100    0.10140 -999.25000    2.59000    3.19100    3.19100
 1266900.00000 -999.25000    0.07200   72.86580   30.25000    0.11330 -999.25000    2.57000    3.19100    3.19100
 1266960.00000 -999.25000    0.07200   73.69060   31.64100    0.11740 -999.25000    2.60000    3.05000    3.19100
 1267020.00000 -999.25000    0.07600   74.76590   30.25000    0.12340 -999.25000    2.57000    2.98300    3.05000
 1267080.00000 -999.25000    0.08800   76.10260   34.51600    0.13320 -999.25000    2.56500    2.66400    2.66400
 1267140.00000 -999.25000    0.06800   76.95060   33.06300    0.13910 -999.25000    2.56000    2.43400    2.43400
 1267200.00000 -999.25000    0.05600   77.41180   37.51600    0.13950 -999.25000    2.57000    2.43400    2.43400
 1267260.00000 -999.25000    0.08000   78.18930   42.25000    0.13990 -999.25000    2.57000    2.22400    2.22400
 1267320.00000 -999.25000    0.06800   77.56740   42.25000    0.15100 -999.25000    2.56000    2.22400    2.12500
 1267380.00000 -999.25000    0.06600   75.91050   40.64100    0.13790 -999.25000    2.56000    2.22400    2.17450
 1267440.00000 -999.25000    0.06400   74.07260   43.89100    0.13150 -999.25000    2.56000    2.22400    2.22400
 1267500.00000 -999.25000    0.06800   71.79220   40.64100    0.12520 -999.25000    2.62000    2.43400    2.43400
 1267560.00000 -999.25000    0.05200   69.61910   36.00000    0.11800 -999.25000    2.61000    2.66400    2.78700
 1267620.00000 -999.25000    0.04600   67.58290   34.51600    0.10260 -999.25000    2.58000    2.91500    2.91500
 1267680.00000 -999.25000    0.04000   67.55580   31.64100    0.09510 -999.25000    2.57000    3.19400    3.19400
 1267740.00000 -999.25000    0.03600   68.03370   28.95350    0.09240 -999.25000    2.59000    3.33800    3.49300
 1267800.00000 -999.25000    0.03600   68.83110   26.26600    0.10850 -999.25000    2.58000    3.65400    3.65400
 1267860.00000 -999.25000    0.06000   70.48820   27.56300    0.11360 -999.25000    2.60000    3.49300    3.49300
 1267920.00000 -999.25000    0.07600   73.57890   36.00000    0.12220 -999.25000    2.61000    3.19100    3.19100
 1267980.00000 -999.25000    0.07600   75.35770   36.75800    0.12160 -999.25000    2.59000    3.19100    3.05000
 1268040.00000 -999.25000    0.07600   75.97670   37.51600    0.15010 -999.25000    2.59000    2.66400    2.54600
 1268100.00000 -999.25000    0.09800   77.18360   40.64100    0.15060 -999.25000    2.59000    2.43400    2.22400
 1268160.00000 -999.25000    0.12000   79.14390   40.64100    0.15190 -999.25000    2.59000    2.43400    2.43400
 1268220.00000 -999.25000    0.07600   79.86650   40.64100    0.16540 -999.25000    2.56000    2.12500    2.12500
 1268280.00000 -999.25000    0.08800   79.33140   42.25000    0.17880 -999.25000    2.57000    1.85600    1.85600
 1268340.00000 -999.25000    0.08800   78.44830   43.89100    0.15890 -999.25000    2.58000    1.94200    2.03200
 1268400.00000 -999.25000    0.10800   78.05230   42.26600    0.15830 -999.25000    2.58000    1.98700    2.03200
 1268460.00000 -999.25000    0.10400   76.95000   40.64100    0.14410 -999.25000    2.62000    2.03200    2.03200
 1268520.00000 -999.25000    0.06400   74.74500   42.25000    0.12990 -999.25000    2.58000    2.43400    2.43400
 1268580.00000 -999.25000    0.09600   73.03600   42.25000    0.12150 -999.25000    2.60000    2.32600    2.32600
 1268640.00000 -999.25000    0.11600   72.11550   36.94550    0.11360 -999.25000    2.62000    2.49500    2.55650
 1268700.00000 -999.25000    0.08000   71.23000   31.64100    0.10590 -999.25000    2.61000    2.66400    2.78700
 1268760.00000 -999.25000    0.06000   71.22660   33.06300    0.09820 -999.25000    2.61000    2.91500    3.05000
 1268820.00000 -999.25000    0.05200   71.93210   36.00000    0.11660 -999.25000    2.59000    3.05000    3.05000
 1268880.00000 -999.25000    0.07200   73.58020   36.00000    0.11950 -999.25000    2.61000    2.91500    2.91500
 1268940.00000 -999.25000    0.07600   75.23520   36.00000    0.13210 -999.25000    2.57000    2.78700    2.78700
 1269000.00000 -999.25000    0.10000   76.27110   39.06300    0.14520 -999.25000    2.60000    2.66400    2.54600
 1269060.00000 -999.25000    0.10400   77.21930   47.26600    0.14670 -999.25000    2.59000    2.43400    2.43400
 1269120.00000 -999.25000    0.11200   77.83230   45.57850    0.14820 -999.25000    2.57500    2.22400    2.22400
