~Version ---------------------------------------------------
VERS.   2.0 : CWLS log ASCII Standard -VERSION 2.0
WRAP.    NO : One line per depth step
DLM . SPACE : Column Data Section Delimiter
~Well ------------------------------------------------------
STRT.0.1 in          67920.00000 : START DEPTH
STOP.0.1 in        1476300.00000 : STOP DEPTH
STEP.0.1 in             60.00000 : STEP
NULL.                    -999.25 : NULL VALUE
COMP.               STATOILHYDRO : COMPANY
WELL.                  15/9-F-14 : WELL
FLD .                      VOLVE : FIELD
LOC .                            : LOCATION
PROV.                            : PROVINCE
CNTY.                            : COUNTY
STAT.                            : STATE
CTRY.                            : COUNTRY
SRVC.    CROCKER DATA PROCESSING : SERVICE COMPANY
DATE. 2009-02-18 14:31:44.282000 : DATE
UWI .                            : UNIQUE WELL ID
API .                            : API NUMBER
~Curve Information -----------------------------------------
DEPTH.0.1 in       : Measured Depth
DRHO .g/cm3        : DRHO:UNKNOWN:rC:NONE:v1
DT   .us/ft        : DT:UNKNOWN:rC:NONE:v2
DTS  .us/ft        : DTS:UNKNOWN:rC:NONE:v1
GR   .API          : GR:UNKNOWN:rC:NONE:v1
NPHI .v/v_decimal  : NPHI:UNKNOWN:rC:NONE:v1
PEF  .b/elec       : PEF:UNKNOWN:rC:NONE:v1
RD   .UNKNOWN      : RD:UNKNOWN:rC:NONE:v1
RHOB .g/cm3        : RHOB:UNKNOWN:rC:NONE:v1
RS   .UNKNOWN      : RS:UNKNOWN:rC:NONE:v1
RT   .ohm.m        : RT:UNKNOWN:rC:NONE:v1
~Params ----------------------------------------------------
PROD   .                        PETROLOG : 
PROG   .            ['PETROLOG-TO-DLIS'] : 
RUN    .                              [] : 
DESCENT.                              [] : 
VERSION.                           10.00 : 
LINEAGE.      Python-converted from DLIS : 
ORFILE . WLC_PETRO_COMPUTED_INPUT_1.DLIS : 
~Other -----------------------------------------------------
~ASCII -----------------------------------------------------
# ...
 1468980.00000    0.04470 -999.25000 -999.25000   55.53190    0.18550    2.85060    0.48450    2.35530    0.62080    0.62050
 1469040.00000    0.06120 -999.25000 -999.25000   50.25670    0.18310    2.98030    0.46320    2.38050    0.59400    0.62750
 1469100.00000    0.04630 -999.25000 -999.25000   46.98500    0.17340    3.20240    0.48140    2.37250    0.57490    0.53830
 1469160.00000    0.04240 -999.25000 -999.25000   47.00370    0.17720    3.14620    0.45070    2.37820    0.59490    0.52600
 1469220.00000    0.01630 -999.25000 -999.25000   49.25970    0.17440    3.16660    0.50980    2.34960    0.58480    0.53570
 1469280.00000    0.02630 -999.25000 -999.25000   51.61550    0.17710    3.26730    0.47090    2.35830    0.56620    0.51180
 1469340.00000    0.02410 -999.25000 -999.25000   52.83090    0.17440    3.49340    0.42090    2.35390    0.54000    0.48950
 1469400.00000    0.03100 -999.25000 -999.25000   53.44240    0.17150    3.52420    0.42390    2.36710    0.54570    0.49620
 1469460.00000    0.02320 -999.25000 -999.25000   50.86290    0.17640    3.22410    0.42470    2.36290    0.52280    0.45900
 1469520.00000    0.02600 -999.25000 -999.25000   47.43450    0.17870    2.99690    0.47090    2.36370    0.52620    0.48680
 1469580.00000    0.03490 -999.25000 -999.25000   44.61820    0.16250    2.84900    0.45190    2.37050    0.52930    0.53160
 1469640.00000    0.04410 -999.25000 -999.25000   45.17390    0.16990    2.97160    0.47690    2.38380    0.49410    0.48780
 1469700.00000    0.01460 -999.25000 -999.25000   45.98780    0.17790    3.27570    0.49440    2.38310    0.46980    0.46620
 1469760.00000   -0.00370 -999.25000 -999.25000   47.40330    0.18230    3.77900    0.49890    2.38380    0.48580    0.47800
 1469820.00000   -0.00520 -999.25000 -999.25000   47.97650    0.16610    3.86350    0.54200    2.40230    0.51260    0.48490
 1469880.00000    0.01900 -999.25000 -999.25000   48.35910    0.16630    3.44150    0.66620    2.42900    0.50490    0.49000
 1469940.00000    0.03750 -999.25000 -999.25000   50.36040    0.16810    3.19710    0.62690    2.42940    0.49580    0.51030
 1470000.00000    0.04580 -999.25000 -999.25000   53.09880    0.17540    3.17230    0.70010    2.40730    0.52720    0.54270
 1470060.00000    0.04090 -999.25000 -999.25000   56.12580    0.17360    3.18060    0.76890    2.37040    0.56610    0.55110
 1470120.00000    0.04490 -999.25000 -999.25000   54.87320    0.18490    3.05760    0.90930    2.37280    0.62770    0.58130
 1470180.00000    0.04300 -999.25000 -999.25000   53.88150    0.17440    3.10840    1.06620    2.38130    0.67360    0.60100
 1470240.00000    0.04320 -999.25000 -999.25000   53.64220    0.16750    3.27060    1.05080    2.38690    0.84830    0.82490
 1470300.00000    0.03380 -999.25000 -999.25000   56.45590    0.16680    3.38500    0.99070    2.37970    0.86470    0.87560
 1470360.00000    0.01140 -999.25000 -999.25000   57.36050    0.16670    3.17910    1.10550    2.36830    0.85480    0.93980
 1470420.00000    0.00990 -999.25000 -999.25000   58.89280    0.18660    2.99330    1.24660    2.37960    0.86050    0.94100
 1470480.00000    0.02110 -999.25000 -999.25000   59.36680    0.17610    2.83870    1.50920    2.38350    0.87140    0.71530
 1470540.00000    0.02990 -999.25000 -999.25000   60.15210    0.17160    2.87140    1.78680    2.37480    0.84960    0.61780
 1470600.00000    0.03420 -999.25000 -999.25000   59.38150    0.17520    2.90030    1.22810    2.36470    0.83390    1.03120
 1470660.00000    0.03010 -999.25000 -999.25000   59.07750    0.17160    2.85340    1.28020    2.35280    0.82920    1.21400
 1470720.00000    0.04280 -999.25000 -999.25000   59.51830    0.17470    2.88630    1.56770    2.36200    0.82420    1.22660
 1470780.00000    0.05050 -999.25000 -999.25000   62.25200    0.16510    2.86090    2.39130    2.39620    0.90990    0.89930
 1470840.00000    0.03480 -999.25000 -999.25000   67.64500    0.15840    2.95010    2.44080    2.45230    1.25720    0.89630
 1470900.00000    0.02840 -999.25000 -999.25000   71.42900 -999.25000    3.04500    1.93840    2.53130    1.49970    1.54330
 1470960.00000    0.01890 -999.25000 -999.25000   75.13730 -999.25000    3.08750    2.52380    2.58610    1.77640    2.92520
 1471020.00000    0.02150 -999.25000 -999.25000   77.65240 -999.25000    3.09510    2.61360    2.60090    1.81350    2.87410
 1471080.00000    0.02160 -999.25000 -999.25000   82.84850 -999.25000    3.11090    2.66150    2.60190    2.14670    3.29760
 1471140.00000    0.02460 -999.25000 -999.25000   82.90000 -999.25000    3.26560    2.96240    2.58940    2.30550    3.56730
 1471200.00000    0.03420 -999.25000 -999.25000   80.59150 -999.25000    3.43320    3.26320    2.58370    2.46360    4.72110
 1471260.00000    0.03810 -999.25000 -999.25000   74.88900 -999.25000    3.56080    4.91800    2.56980    2.68570    6.78730
 1471320.00000    0.02900 -999.25000 -999.25000   76.18650 -999.25000    3.52790    4.48390    2.54460    2.13560    6.23340
 1471380.00000    0.02040 -999.25000 -999.25000   78.41580 -999.25000    3.39320 -999.25000    2.52540 -999.25000 -999.25000
 1471440.00000    0.01990 -999.25000 -999.25000   81.32520 -999.25000    3.18330 -999.25000    2.50820 -999.25000 -999.25000
 1471500.00000    0.02630 -999.25000 -999.25000   82.12650 -999.25000    3.11660 -999.25000    2.51720 -999.25000 -999.25000
 1471560.00000    0.02940 -999.25000 -999.25000   83.48580 -999.25000    3.18490 -999.25000    2.52940 -999.25000 -999.25000
 1471620.00000    0.02400 -999.25000 -999.25000   86.46640 -999.25000    3.29850 -999.25000    2.53760 -999.25000 -999.25000
 1471680.00000    0.02740 -999.25000 -999.25000   87.33670 -999.25000    3.31410 -999.25000    2.55540 -999.25000 -999.25000
 1471740.00000    0.02890 -999.25000 -999.25000   91.34160 -999.25000    3.24240 -999.25000    2.56870 -999.25000 -999.25000
 1471800.00000    0.03240 -999.25000 -999.25000   98.24600 -999.25000    3.09580 -999.25000    2.58970 -999.25000 -999.25000
 1471860.00000    0.03220 -999.25000 -999.25000  108.93560 -999.25000    3.01570 -999.25000    2.59450 -999.25000 -999.25000
 1471920.00000    0.03440 -999.25000 -999.25000  114.25010 -999.25000    3.05360 -999.25000    2.59670 -999.25000 -999.25000
 1471980.00000 -999.25000 -999.25000 -999.25000  118.49360 -999.25000 -999.25000 -999.25000 -999.25000 -999.25000 -999.25000
 1472040.00000 -999.25000 -999.25000 -999.25000  121.47270 -999.25000 -999.25000 -999.25000 -999.25000 -999.25000 -999.25000
 1472100.00000 -999.25000 -999.25000 -999.25000  124.96160 -999.25000 -999.25000 -999.25000 -999.25000 -999.25000 -999.25000
 1472160.00000 -999.25000 -999.25000 -999.25000  122.23540 -999.25000 -999.25000 -999.25000 -999.25000 -999.25000 -999.25000
 1472220.00000 -999.25000 -999.25000 -999.25000  113.27740 -999.25000 -999.25000 -999.25000 -999.25000 -999.25000 -999.25000
 1472280.00000 -999.25000 -999.25000 -999.25000  104.78180 -999.25000 -999.25000 -999.25000 -999.25000 -999.25000 -999.25000
 1472340.00000 -999.25000 -999.25000 -999.25000  100.74880 -999.25000 -999.25000 -999.25000 -999.25000 -999.25000 -999.25000
 1472400.00000 -999.25000 -999.25000 -999.25000   97.58910 -999.25000 -999.25000 -999.25000 -999.25000 -999.25000 -999.25000
 1472460.00000 -999.25000 -999.25000 -999.25000   93.34550 -999.25000 -999.25000 -999.25000 -999.25000 -999.25000 -999.25000
 1472520.00000 -999.25000 -999.25000 -999.25000 -999.25000 -999.25000 -999.25000 -999.25000 -999.25000 -999.25000 -999.25000
 1472580.00000 -999.25000 -999.25000 -999.25000 -999.25000 -999.25000 -999.25000 -999.25000 -999.25000 -999.25000 -999.25000
 1472640.00000 -999.25000 -999.25000 -999.25000 -999.25000 -999.25000 -999.25000 -999.25000 -999.25000 -999.25000 -999.25000
 1472700.00000 -999.25000 -999.25000 -999.25000 -999.25000 -999.25000 -999.25000 -999.25000 -999.25000 -999.25000 -999.25000
 1472760.00000 -999.25000 -999.25000 -999.25000 -999.25000 -999.25000 -999.25000 -999.25000 -999.25000 -999.25000 -999.25000
